,MLS #,Type,Status,City,Address,Unit Number,Price,Bedrooms,Total Bathrooms,Days On Market,Listing Date,Closing Date,Short Sale Y/N,Approx Sq Ft,Total Rooms,Bank Owned Y/N,Days On MLS,Monthly Maintenance Fee,Short Sale (Y/N),PARKING AVAILABLE,PARKING AVAILABLE.1,PARKING AVAILABLE.2,Zip,Elevator,A/C Central,A/C Central.1,A/C Central.2,Terrace,Terrace.1,Terrace.2,Washer/Dryer,Washer/Dryer.1,Washer/Dryer.2,Taxes,Doorman,Doorman.1,Exercise Room,Exercise Room.1,Health Club,Health Club.1,New York View,New York View.1,New York View.2,River View,River View.1,River View.2,Street_Num,Street_Name,Neighborhood,City_X,Zip_Code,Latitude,Longitude
0,502908,Condominium,SOLD,"JC, Downtown",205 10TH ST,7R,"$375,000 ",1.0,1,57,4/5/2005,8/15/2005,,875.0,3.0,,55,405.0,,,Other-See Remarks,,7302,Yes,,No,,,No,,,No,,4100,Yes,,Yes,,No,,,Yes,,,No,,205,E 10th St,Lower Manhattan,New York,10003,40.729734000000001,-73.986122999999992
1,502678,Condominium,SOLD,Hoboken,1122 WASHINGTON ST,4,"$375,000 ",2.0,1,10,3/30/2005,8/17/2005,,1000.0,6.0,,9,,,,None,,7030,No,,No,,,No,,,No,,,No,,No,,No,,,No,,,No,,1122,Washington St,Not Found,Hoboken,07030,40.750853599999999,-74.027037100000001
2,505001,One Family,SOLD,North Bergen,1515 40TH ST,,"$375,000 ",4.0,2,27,6/2/2005,8/23/2005,,,,,26,,,2 Cars,,,7047,,Yes,,,,,No,No,,,4082,,,,,,,No,,,No,,,1515,40th St,Not Found,North Bergen,07047,40.780403,-74.033907999999997
3,505022,Condominium,SOLD,"JC, West Bergen",39 WILLOW ST,2,"$375,000 ",2.0,1,20,6/2/2005,8/24/2005,,1450.0,6.0,,16,180.0,,,1 Car,,7305,No,,Yes,,,No,,,No,,4058,Yes,,No,,No,,,No,,,Yes,,39,Willow St,Bayonne,Bayonne,07002,40.670791600000001,-74.110173899999992
4,506292,Condominium,SOLD,"JC, Journal Square",75 LIBERTY AVE,B4,"$375,000 ",2.0,2,11,7/11/2005,8/31/2005,,1238.0,5.0,,8,409.0,,,"1 Car, Covered",,7304,Yes,,Yes,,,Yes,,,Yes,,4000,Yes,,No,,Yes,,,No,,,No,,75,Liberty Ave,Journal Square,Jersey City,07306,40.738669199999997,-74.064488999999995
5,403969,Condominium,SOLD,"JC, Downtown",418 1ST ST,2,"$375,000 ",3.0,2,56,4/17/2004,9/1/2005,,1230.0,6.0,,30,,,,None,,7304,No,,Yes,,,No,,,No,,,No,,No,,No,,,No,,,No,,418,1st St,Historic Downtown,Jersey City,07302,40.723005099999988,-74.052857000000003
6,504682,Condominium,SOLD,Hoboken,601 MONROE ST,2D,"$375,000 ",2.0,1,39,5/23/2005,9/15/2005,,650.0,4.0,,36,171.0,,,None,,7030,No,,No,,,No,,,No,,3400,No,,No,,No,,,No,,,No,,601,Monroe St,Not Found,Hoboken,07030,40.745118099999999,-74.038324399999993
7,509017,Condominium,SOLD,Secaucus,1932 Harmon Cove Tower,32,"$375,000 ",2.0,2,42,6/23/2005,9/20/2005,,1372.0,5.0,,0,546.0,,,Covered,,7094,Yes,,Yes,,,Yes,,,Yes,,3749,Yes,,No,,Yes,,,Yes,,,No,,Not Found,Harmon Cove Tower,Not Found,Secaucus,07094,40.7821353,-74.0788455
8,506684,Condominium,SOLD,Hoboken,126 MONROE ST,4B,"$375,000 ",1.0,1,25,7/24/2005,9/21/2005,,639.0,4.0,,22,99.0,,,None,,7030,No,,Yes,,,No,,,Yes,,3742,No,,No,,No,,,No,,,No,,126,Monroe St,Not Found,Hoboken,07030,40.739942800000001,-74.039908499999996
9,504328,Condominium,SOLD,"JC, West Bergen",409 GRAND AVE,315,"$375,000 ",2.0,1,16,5/16/2005,9/28/2005,,975.0,6.0,,15,223.0,,,"1 Car, Covered, Garage",,7304,No,,Yes,,,No,,,No,,4000,No,,No,,No,,,No,,,No,,409,Grand Ave,The Heights,North Bergen,07047,40.758644599999997,-74.048746699999995
10,500466,Condominium,SOLD,"JC, Downtown",355 7TH ST,3R,"$375,000 ",2.0,1,124,1/13/2005,9/28/2005,,700.0,4.0,,119,250.0,,,None,,7302,No,,Yes,,,No,,,No,,,No,,No,,No,,,No,,,No,,355,7th St,Not Found,Hoboken,07030,40.745571699999999,-74.033330699999993
11,504736,Condominium,SOLD,"JC, Heights",164 OGDEN AVE,401,"$375,000 ",3.0,1,72,5/24/2005,10/13/2005,,890.0,6.0,,69,348.0,,,Covered,,7307,No,,No,,,Yes,,,No,,2677,No,,No,,No,,,Yes,,,No,,164,Ogden Ave,The Heights,Jersey City,07307,40.739828099999997,-74.045668199999994
12,500417,One Family,SOLD,"JC, Journal Square",142 DE KALB AVE,,"$375,000 ",4.0,3,89,1/17/2005,10/14/2005,,,,,88,,,None,,,7306,,No,,,,,No,No,,,2993,,,,,,,No,,,No,,,142,Dekalb Ave,McGinley Square,Jersey City,07306,40.728864799999997,-74.070004900000001
13,506368,One Family,SOLD,"JC, West Bergen",411 CATOR AVE,,"$375,000 ",3.0,1,34,7/14/2005,10/17/2005,,,,,31,,,"2 Cars, Garage",,,7305,,Yes,,,,,No,Yes,,,5297,,,,,,,No,,,No,,,411,Cator Ave,Not Found,Jersey City,07305,40.705794699999998,-74.097954399999992
14,505438,Condominium,SOLD,"JC, West Bergen",5 CRABAPPLE CT,,"$375,000 ",2.0,1,31,6/13/2005,10/17/2005,,1400.0,5.0,,27,205.0,,,1 Car,,7305,No,,Yes,,,Yes,,,Yes,,4057,No,,No,,No,,,No,,,Yes,,5,Crabapple Ct,Hackensack River Waterfront,Jersey City,07305,40.708176299999998,-74.1055688
15,503942,Cooperative,SOLD,"JC, Journal Square",22 GLENWOOD AVE,4,"$375,000 ",3.0,2,112,5/2/2005,11/11/2005,,1800.0,6.0,,109,846.0,,,1 Car,,7306,No,,Yes,,,Yes,,,No,,,No,,No,,No,,,No,,,No,,22,Glenwood Ave,McGinley Square,Jersey City,07306,40.726546499999998,-74.06835079999999
16,507383,One Family,SOLD,Guttenberg,138 A 68TH ST,,"$375,000 ",4.0,3,30,8/13/2005,11/29/2005,,,9.0,,28,,,1 Car,,,7093,,No,,,,,No,Yes,,,6900,,,,,,,No,,,No,,,138,68th St,Not Found,Guttenberg,07093,40.792018599999999,-74.005873100000002
17,511783,One Family,SOLD,Bayonne,12 PARKSIDE LANE,,"$375,000 ",3.0,2,5,11/30/2005,1/18/2006,,,8.0,,0,,,2 Cars,,,7002,,Yes,,,,,No,Yes,,,5559,,,,,,,No,,,No,,,12,Parkside Ln,Constable Hook,Bayonne,07002,40.662044999999999,-74.127358999999998
18,509345,One Family,SOLD,Bayonne,302 AVENUE C,,"$375,000 ",3.0,2,38,9/28/2005,1/19/2006,,,6.0,,37,,,"2 Cars, Garage, Detached",,,7002,,Yes,,,,,No,No,,,6482,,,,,,,No,,,No,,,302,Avenue C,Constable Hook,Bayonne,07002,40.657265000000002,-74.126713999999993
19,509055,One Family,SOLD,Bayonne,101 EVERGREEN ST,,"$375,000 ",2.0,3,104,9/21/2005,2/17/2006,,,10.0,,102,,,"2 Cars, Garage",,,7002,,No,,,,,No,No,,,6041,,,,,,,No,,,No,,,101,Evergreen St,Constable Hook,Bayonne,07002,40.652260000000012,-74.12201499999999
20,50012021,Condominium,SOLD,Hoboken,1015 WASHINGTON STREET,25,"$375,000 ",1.0,1,53,12/8/2005,3/22/2006,,600.0,4.0,,49,,,,None,,7030,Yes,,No,,,No,,,No,,3210,No,,No,,No,,,No,,,No,,1015,Washington St,Not Found,Hoboken,07030,40.749025500000002,-74.027330800000001
21,511703,Condominium,SOLD,"JC, Downtown",368 7TH ST,1,"$375,000 ",1.0,1,2,11/30/2005,3/23/2006,,675.0,5.0,,1,165.0,,,None,,7302,No,,Yes,,,No,,,Yes,,,No,,No,,No,,,No,,,No,,368,7th St,Not Found,Hoboken,07030,40.745583000000003,-74.033381399999996
22,60000022,Condominium,SOLD,"JC, Downtown",4 CONSTELLATION PL,101,"$375,000 ",1.0,1,78,1/1/2006,3/27/2006,,787.0,5.0,,76,584.0,,,1 Car,,7302,Yes,,No,,,Yes,,,Yes,,5625,No,,Yes,,Yes,,,No,,,No,,Not Found,Not Found,Not Found,Not Found,Not Found,40.058323799999997,-74.405661199999997
23,60000200,Condominium,SOLD,Hoboken,1027 WASHINGTON ST,3R,"$375,000 ",1.0,1,29,1/9/2006,4/10/2006,,588.0,4.0,,29,274.0,,,None,,7030,No,,No,,,No,,,No,,2790,No,,No,,No,,,No,,,No,,1027,Washington St,Not Found,Hoboken,07030,40.749310899999998,-74.027189800000002
24,60000656,Condominium,SOLD,"JC, Downtown",275A MONMOUTH ST,A,"$375,000 ",2.0,2,36,1/18/2006,4/26/2006,,905.0,4.0,,34,206.0,,,None,,7302,No,,No,,,No,,,Yes,,2837,No,,No,,No,,,No,,,No,,275,Monmouth St,Historic Downtown,Jersey City,07302,40.718442499999988,-74.051507000000001
25,60005589,One Family,SOLD,North Bergen,9012 COLUMBIA AVE,,"$375,000 ",4.0,2,4,4/3/2006,4/27/2006,,,8.0,,0,,,2 Cars,,,7047,,No,,,,,No,Yes,,,4136,,,,,,,No,,,No,,,9012,Columbia Ave,Not Found,North Bergen,07047,40.812649,-74.009860000000003
26,60003100,Condominium,SOLD,"JC, Heights",579 PALISADE AVE,2W,"$375,000 ",2.0,2,24,3/14/2006,5/10/2006,,990.0,4.0,,22,187.0,,,Other-See Remarks,,7307,No,,Yes,,,No,,,Yes,,3400,No,,No,,No,,,Yes,,,No,,579,Palisade Ave,The Heights,Jersey City,07307,40.7482848,-74.041638699999993
27,60002050,Condominium,SOLD,Hoboken,1115 WILLOW AVE,101,"$375,000 ",1.0,1,50,2/20/2006,5/22/2006,,670.0,3.0,,48,212.0,,,None,,7030,No,,No,,,No,,,No,,3700,No,,No,,No,,,No,,,No,,1115,Willow Ave,Not Found,Hoboken,07030,40.750510299999988,-74.030765599999995
28,60004312,One Family,SOLD,Bayonne,103 EAST 28TH ST,,"$375,000 ",3.0,2,20,4/3/2006,5/31/2006,,,6.0,,17,,,"3+ Cars, Garage",,,7002,,Yes,,,,,No,No,,,5077,,,,,,,No,,,No,,,103,E 28th St,Constable Hook,Bayonne,07002,40.665565399999998,-74.109669600000004
29,60001891,Condominium,SOLD,Secaucus,46 MARINA KEY,46,"$375,000 ",2.0,2,72,2/14/2006,6/8/2006,,1008.0,7.0,,69,279.0,,,"2 Cars, Attached",,7094,No,,Yes,,,Yes,,,Yes,,3878,Yes,,No,,No,,,No,,,No,,Not Found,Not Found,Not Found,Secaucus,Not Found,40.7895453,-74.056529799999993
30,60003099,Condominium,SOLD,"JC, Downtown",30 CONSTITUTION WAY,206,"$375,000 ",1.0,1,34,3/15/2006,6/22/2006,,850.0,4.0,,33,432.0,,,1 Car,,7305,No,,Yes,,,No,,,Yes,,6160,No,,No,,Yes,,,No,,,No,,30,Constitution Way,Not Found,Jersey City,07305,40.689613799999997,-74.071103100000002
31,60002083,One Family,SOLD,"JC, West Bergen",63 TOWERS ST,,"$375,000 ",3.0,2,53,2/19/2006,6/30/2006,,,8.0,,50,,,2 Cars,,,7305,,Yes,,,,,No,Yes,,,4793,,,,,,,No,,,No,,,63,Towers St,Not Found,Jersey City,07305,40.711272899999997,-74.089270200000001
32,60001372,One Family,SOLD,Bayonne,65 WEST 51ST ST,,"$375,000 ",3.0,3,96,1/31/2006,7/5/2006,,,6.0,,92,,,1 Car,,,7002,,Yes,,,,,No,Yes,,,5704,,,,,,,No,,,No,,,65,W 51st St,Bayonne,Bayonne,07002,40.684896299999998,-74.104484299999996
33,60003102,One Family,SOLD,Bayonne,382 AVENUE E,,"$375,000 ",3.0,2,55,3/15/2006,7/13/2006,,,8.0,,54,,,2 Cars,,,7002,,No,,,,,No,Yes,,,7213,,,,,,,No,,,No,,,382,Avenue E,Constable Hook,Bayonne,07002,40.666528,-74.112387999999996
34,60001327,Condominium,SOLD,"JC, Journal Square",107 KENSINGTON AVE,306,"$375,000 ",2.0,1,65,1/30/2006,7/20/2006,,1247.0,5.0,,61,450.0,,,None,,7306,Yes,,No,,,No,,,No,,2386,No,,No,,No,,,No,,,No,,107,Kensington Ave,West Side,Jersey City,07304,40.723663100000003,-74.076512100000002
35,60002262,One Family,SOLD,"JC, Heights",78 FRANKLIN ST,,"$375,000 ",3.0,2,105,2/24/2006,7/24/2006,,,7.0,,102,,,1 Car,,,7307,,No,,,,,Yes,Yes,,,4835,,,,,,,No,,,No,,,78,Franklin St,The Heights,Jersey City,07307,40.742007000000001,-74.048126699999997
36,60001762,Condominium,SOLD,Hoboken,903 WILLOW AVE,4,"$375,000 ",2.0,1,93,2/12/2006,7/28/2006,,654.0,4.0,,91,160.0,,,Other-See Remarks,,7030,No,,No,,,No,,,No,,3123,No,,No,,No,,,No,,,No,,903,Willow Ave,Not Found,Hoboken,07030,40.747981199999998,-74.031566699999999
37,60013962,Condominium,SOLD,Secaucus,109 SANDPIPER KEY,,"$375,000 ",2.0,2,263,12/12/2005,10/6/2006,,1006.0,5.0,,0,273.0,,,2 Cars,,7094,No,,Yes,,,Yes,,,Yes,,3878,No,,No,,No,,,No,,,Yes,,109,Sandpiper Key Rd,Not Found,Secaucus,07094,40.788059100000012,-74.077042199999994
38,60008771,One Family,SOLD,North Bergen,1501 81ST ST,,"$375,000 ",4.0,1,76,7/1/2006,10/27/2006,,,7.0,,72,,,"1 Car, Other-See Remarks",,,7047,,No,,,,,No,No,,,4474,,,,,,,No,,,No,,,1501,81st St,Not Found,North Bergen,07047,40.806333000000002,-74.014307000000017
39,60005938,Condominium,SOLD,"JC, Downtown",40 CONSTITUTION WAY,105,"$375,000 ",1.0,1,122,5/6/2006,11/30/2006,,825.0,4.0,,120,437.0,,,1 Car,,7302,Yes,,Yes,,,No,,,Yes,,5700,Yes,,Yes,,Yes,,,No,,,No,,40,Constitution Way,Not Found,Jersey City,07305,40.689613799999997,-74.071103100000002
40,60007592,Condominium,SOLD,"JC, Downtown",380 7TH ST,1L,"$375,000 ",2.0,1,76,6/7/2006,12/7/2006,,850.0,4.0,,74,175.0,,,None,,7302,No,,Yes,,,Yes,,,Yes,,,No,,No,,No,,,No,,,No,,380,7th St,Historic Downtown,Jersey City,07302,40.726823600000003,-74.051445700000002
41,60011117,Condominium,SOLD,"JC, Downtown",45 RIVER DR SOUTH,211,"$375,000 ",1.0,1,98,8/24/2006,1/11/2007,,850.0,5.0,,94,276.0,,,Garage,,7310,Yes,,No,,,No,,,No,,,Yes,,No,,No,,,No,,,No,,45,River Dr S,The Waterfront,Jersey City,07310,40.728247000000003,-74.03201
42,60014601,Condominium,SOLD,Union City,3519-21 PARK AVE,12,"$375,000 ",2.0,2,37,11/13/2006,1/19/2007,,1049.0,4.0,,36,180.0,,,1 Car,,7087,Yes,,Yes,,,No,,,Yes,,,No,,No,,No,,,Yes,,,No,,3519,Park Ave,Not Found,Union City,07087,40.771217300000004,-74.022621299999997
43,60015356,Condominium,SOLD,Hoboken,159-161 NEWARK ST,3D,"$375,000 ",1.0,1,66,12/4/2006,2/26/2007,,575.0,4.0,,65,143.0,,,None,,7030,No,,No,,,Yes,,,No,,3609,No,,No,,No,,,No,,,No,,161,Newark St,Not Found,Hoboken,07030,40.737130000000008,-74.032307300000014
44,70000388,Condominium,SOLD,Bayonne,191-201 WEST 30TH ST,104,"$375,000 ",2.0,2,37,1/9/2007,3/16/2007,,1211.0,5.0,,36,300.0,,,2 Cars,,7002,Yes,,Yes,,,Yes,,,Yes,,5800,No,,No,,Yes,,,No,,,Yes,,191,W 30th St,Constable Hook,Bayonne,07002,40.673134900000001,-74.121980699999995
45,70000979,Condominium,SOLD,Hoboken,621 WILLOW AVE,1R,"$375,000 ",1.0,1,7,1/22/2007,3/20/2007,,640.0,4.0,,6,248.0,,,None,,7030,No,,No,,,Yes,,,No,,3227,No,,No,,No,,,No,,,No,,621,Willow Ave,Not Found,Hoboken,07030,40.744821700000003,-74.032528799999994
46,70000333,One Family,SOLD,Rutherford,27 WINGRA AVE,,"$375,000 ",3.0,3,19,1/5/2007,3/29/2007,,,7.0,,15,,,"1 Car, Detached",,,7070,,No,,,,,No,No,,,7490,,,,,,,No,,,No,,,27,Wingra Ave,Not Found,Rutherford,07070,40.840426999999998,-74.116534999999999
47,60016137,Condominium,SOLD,Hoboken,332 MADISON ST,2R,"$375,000 ",2.0,1,24,1/1/2007,3/29/2007,,700.0,4.0,,23,200.0,,,None,,7030,No,,Yes,,,No,,,Yes,,3125,No,,No,,No,,,No,,,No,,332,Madison St,Not Found,Hoboken,07030,40.742537300000002,-74.038121799999999
48,60012510,Condominium,SOLD,Union City,4801 PALISADE AVE,2B,"$375,000 ",2.0,2,122,9/25/2006,3/29/2007,,1443.0,5.0,,120,280.0,,,"2 Cars, Tandem-Private",,7087,No,,Yes,,,No,,,Yes,,,No,,No,,No,,,No,,,No,,4801,Palisade Ave,Not Found,Union City,07087,40.780770799999999,-74.019865499999995
49,60013349,Condominium,SOLD,"JC, Greenville",206-44 WEST SHEARWATER CT,44,"$375,000 ",1.0,2,142,10/11/2006,4/9/2007,,960.0,4.0,,140,589.0,,,"1 Car, Garage",,7305,Yes,,Yes,,,Yes,,,Yes,,6631,No,,Yes,,Yes,,,No,,,No,,206,Shearwater Ct W,Not Found,Jersey City,07305,40.687668100000003,-74.073541699999993
50,60005037,Condominium,SOLD,Hoboken,604 MONROE ST,6,"$375,000 ",1.0,1,321,4/18/2006,4/19/2007,,718.0,3.0,,319,135.0,,,1 Car,,7030,Yes,,Yes,,,No,,,Yes,,6000,No,,No,,No,,,No,,,No,,604,Monroe St,Not Found,Hoboken,07030,40.745356200000003,-74.038255300000003
51,70003313,One Family,SOLD,"JC, Heights",237 SOUTH ST,,"$375,000 ",3.0,3,50,2/4/2007,4/27/2007,,,8.0,,12,,,None,,,7307,,No,,,,,No,Yes,,,5066,,,,,,,No,,,No,,,237,South St,The Heights,Jersey City,07307,40.751293500000003,-74.052666899999991
52,60014208,One Family,SOLD,Kearny,257 ELM ST,,"$375,000 ",3.0,2,144,10/26/2006,5/29/2007,,,9.0,,136,,,"1 Car, Garage",,,7032,,Yes,,,,,No,No,,,6963,,,,,,,No,,,No,,,257,Elm St,Not Found,Kearny,07032,40.762968699999988,-74.14667639999999
53,60008405,One Family,SOLD,Weehawken,600 GREGORY AVE,,"$375,000 ",3.0,1,308,6/21/2006,6/18/2007,,,6.0,,303,,,None,,,7086,,No,,,,,No,No,,,3071,,,,,,,Yes,,,Yes,,,600,Gregory Ave,Not Found,Weehawken,07086,40.767525900000003,-74.024097999999995
54,70003345,Condominium,SOLD,"JC, Downtown",264 3RD ST,1R,"$375,000 ",1.0,2,17,3/9/2007,6/22/2007,,800.0,4.0,,12,285.0,,,None,,7302,No,,Yes,,,Yes,,,No,,7348,No,,No,,No,,,No,,,No,,264,3rd St,Downtown Jersey City,Jersey City,07302,40.7234835,-74.046222299999997
55,70002135,Condominium,SOLD,Hoboken,830 BLOOMFIELD ST,4,"$375,000 ",1.0,1,84,2/16/2007,6/29/2007,,700.0,4.0,,80,150.0,,,None,,7030,No,,No,,,No,,,No,,5023,No,,No,,No,,,No,,,No,,830,Bloomfield St,Not Found,Hoboken,07030,40.747064299999998,-74.028969000000004
56,70006393,Condominium,SOLD,Hoboken,100 PARK AVE,2,"$375,000 ",1.0,1,3,5/8/2007,7/27/2007,,676.0,4.0,,1,316.0,,,None,,07030-8010,No,,No,,,No,,,Yes,,4828,No,,No,,No,,,No,,,No,,100,Park Ave,Not Found,Hoboken,07030,40.737937100000003,-74.033638299999993
57,70001226,Condominium,SOLD,"JC, Journal Square",233 DUNCAN AVE,1,"$375,000 ",3.0,3,164,1/29/2007,7/30/2007,,2000.0,7.0,,164,283.0,,,"2 Cars, Garage",,07306-6617,No,,Yes,,,No,,,No,,7200,No,,No,,No,,,No,,,No,,233,Duncan Ave,West Side,Jersey City,07306,40.727976900000002,-74.079462699999993
58,70002401,Condominium,SOLD,Weehawken,518 GREGORY AVE,C206,"$375,000 ",1.0,1,126,2/23/2007,8/17/2007,,860.0,4.0,,126,392.0,,,"1 Car, Covered, Garage",,07086-5706,Yes,,Yes,,,No,,,No,,4140,Yes,,Yes,,No,,,No,,,No,,518,Gregory Ave,Not Found,Weehawken,07086,40.765623300000001,-74.026145900000003
59,70008533,Condominium,SOLD,Hoboken,218 WASHINGTON ST,2A,"$375,000 ",1.0,1,30,6/21/2007,8/24/2007,,525.0,4.0,,29,106.0,,,None,,07030-4719,No,,Yes,,,No,,,No,,3750,No,,No,,No,,,No,,,No,,218,Washington St,Not Found,Hoboken,07030,40.739393900000003,-74.030542699999998
60,70007282,Condominium,SOLD,"JC, Downtown",280 MONMOUTH ST,E,"$375,000 ",1.0,1,57,5/30/2007,8/24/2007,,860.0,4.0,,57,152.0,,,None,,07302-4093,No,,No,,,No,,,Yes,,3079,No,,No,,No,,,No,,,No,,280,Monmouth St,Historic Downtown,Jersey City,07302,40.718349300000007,-74.051555800000003
61,60013335,Condominium,SOLD,"JC, Journal Square",2787 KENNEDY BLVD,507T,"$375,000 ",2.0,2,110,10/10/2006,9/13/2007,,1450.0,5.0,,107,550.0,,,1 Car,,7306,No,,No,,,Yes,,,No,,4563,Yes,,No,,Yes,,,No,,,No,,2787,John F Kennedy Blvd W,Not Found,Jersey City,07306,40.731110299999997,-74.068035199999997
62,70008976,One Family,SOLD,"JC, Heights",25 LINCOLN ST,,"$375,000 ",3.0,2,30,6/27/2007,9/21/2007,,,8.0,,24,,,None,,,07307-2934,,No,,,,,Yes,No,,,4641,,,,,,,No,,,No,,,25,Lincoln St,The Heights,Jersey City,07307,40.747040899999988,-74.049991800000001
63,70011216,Condominium,SOLD,Guttenberg,7004 BLVD EAST,21B,"$375,000 ",2.0,4,19,8/18/2007,10/1/2007,,1911.0,7.0,,18,1479.0,,,"3+ Cars, Attached, Covered, Garage",,07093-5021,Yes,,No,,,No,,,No,,9750,Yes,,Yes,,Yes,,,Yes,,,Yes,,Not Found,Guttenberg St,Not Found,Egg Harbor City,08215,39.539751000000003,-74.617420999999993
64,70002709,Condominium,SOLD,Hoboken,711 CLINTON ST,6A,"$375,000 ",1.0,1,175,3/1/2007,10/15/2007,,686.0,3.0,,174,155.0,,,None,,7030,Yes,,Yes,,,No,,,Yes,,4700,No,,No,,No,,,No,,,No,,711,Clinton St,Not Found,Hoboken,07030,40.746153499999998,-74.033095000000003
65,70015997,One Family,SOLD,West New York,5906 WASHINGTON AVE,,"$375,000 ",0.0,0,61,9/1/2007,11/29/2007,,,0.0,,0,,,3+ Cars,,,7093,,No,,,,,No,No,,,,,,,,,,No,,,No,,,5906,Washington St,Not Found,West New York,07093,40.790799,-74.021275000000003
66,70004847,Condominium,SOLD,North Bergen,7855 BLVD EAST,10F,"$375,000 ",1.0,2,182,4/9/2007,11/29/2007,,1350.0,4.0,,180,668.0,,,"1 Car, Garage",,7047,Yes,,No,,,Yes,,,No,,5300,Yes,,Yes,,Yes,,,No,,,No,,7855,Bergen Blvd,Not Found,North Bergen,07047,40.810703400000001,-74.005035899999996
67,70013195,Condominium,SOLD,Hoboken,625 WASHINGTON ST,2,"$375,000 ",1.0,1,39,9/27/2007,11/30/2007,,600.0,3.0,,38,102.0,,,None,,07030-4967,No,,No,,,No,,,No,,4416,No,,No,,No,,,No,,,No,,625,Washington St,Not Found,Hoboken,07030,40.744346399999998,-74.02873799999999
68,70013721,Condominium,SOLD,Hoboken,106 6TH ST,1,"$375,000 ",1.0,1,20,10/9/2007,12/4/2007,,502.0,4.0,,19,150.0,,,None,,07030-4917,No,,No,,,No,,,No,,2585,No,,No,,No,,,No,,,No,,106,6th St,Not Found,Hoboken,07030,40.743513700000001,-74.029231199999998
69,70009390,One Family,SOLD,Bayonne,220 AVENUE A,,"$375,000 ",2.0,2,97,7/12/2007,12/20/2007,,,5.0,,97,,,2 Cars,,,07002-1255,,No,,,,,No,No,,,7367,,,,,,,No,,,No,,,220,Avenue A,Constable Hook,Bayonne,07002,40.655678999999999,-74.133709899999999
70,70015279,One Family,SOLD,North Bergen,804 87TH ST,,"$375,000 ",3.0,2,77,11/9/2007,2/13/2008,,,11.0,,74,,,"3+ Cars, Garage, Detached",,,7047,,No,,,,,No,Yes,,,6005,,,,,,,No,,,No,,,804,87th St,Not Found,North Bergen,07047,40.807744,-74.005815999999996
71,70013199,Condominium,SOLD,Hoboken,557-559 2ND ST,1L,"$375,000 ",1.0,1,113,9/28/2007,3/7/2008,,610.0,3.0,,113,277.0,,,None,,07030-6580,No,,Yes,,,No,,,Yes,,0,No,,No,,No,,,No,,,No,,559,2nd St,Not Found,Hoboken,07030,40.740208899999999,-74.039009199999995
72,80001208,Condominium,SOLD,"JC, West Bergen",9 BUTTERNUT ST,50T,"$375,000 ",2.0,3,31,1/26/2008,4/4/2008,,1398.0,5.0,,30,220.0,,,1 Car,,07305-4851,No,,Yes,,,Yes,,,Yes,,4889,No,,No,,No,,,No,,,No,,9,Butternut St,Hackensack River Waterfront,Jersey City,07305,40.708381899999999,-74.105061499999991
73,70016456,Condominium,SOLD,West New York,6011 POLK ST,1B,"$375,000 ",3.0,3,97,12/12/2007,4/7/2008,,1626.0,8.0,,96,310.0,,,"2 Cars, Tandem-Private",,7093,No,,Yes,,,Yes,,,No,,0,No,,No,,No,,,No,,,No,,6011,Polk St,Not Found,West New York,07093,40.790360199999988,-74.01807509999999
74,80001650,Condominium,SOLD,"JC, Journal Square",131 KENSINGTON AVE,A5,"$375,000 ",3.0,2,1,2/5/2008,4/16/2008,,1773.0,6.0,,1,633.0,,,None,,07304-1870,Yes,,No,,,No,,,No,,,No,,No,,No,,,No,,,No,,131,Kensington Ave,West Side,Jersey City,07304,40.724153100000002,-74.077567700000003
75,70016462,Condominium,SOLD,"JC, Downtown",278 MONMOUTH ST,3L,"$375,000 ",2.0,1,90,12/13/2007,4/25/2008,,800.0,5.0,,90,325.0,,,None,,07302-5010,No,,No,,,Yes,,,No,,3506,No,,No,,No,,,No,,,No,,278,Monmouth St,Historic Downtown,Jersey City,07302,40.718280300000004,-74.05159359999999
76,70016308,One Family,SOLD,Bayonne,136-138 WEST 50TH ST,,"$375,000 ",4.0,2,33,12/7/2007,4/29/2008,,,8.0,,32,,,"3+ Cars, Garage",,,07002-3104,,Yes,,,,,No,No,,,8517,,,,,,,No,,,No,,,138,W 50th St,Bayonne,Bayonne,07002,40.685504399999999,-74.107895900000003
77,80003386,Condominium,SOLD,Hoboken,132 JACKSON ST,2RN,"$375,000 ",1.0,1,21,3/10/2008,5/16/2008,,751.0,3.0,,21,175.0,,,"Other-See Remarks, None",,07030-8801,No,,No,,,Yes,,,No,,3315,No,,No,,No,,,No,,,No,,132,Jackson St,Not Found,Hoboken,07030,40.740320699999998,-74.040760899999995
78,80002695,Condominium,SOLD,Hoboken,230 PARK AVE,3L,"$375,000 ",1.0,1,27,2/28/2008,5/30/2008,,680.0,3.0,,28,250.0,,,None,,07030-3740,No,,No,,,No,,,Yes,,2862,No,,No,,No,,,No,,,No,,230,Park Ave,Not Found,Hoboken,07086,40.761491399999997,-74.026715799999991
79,80002561,Condominium,SOLD,"JC, Downtown",264 9TH ST,4o,"$375,000 ",2.0,2,31,2/24/2008,6/4/2008,,924.0,5.0,,30,319.0,,,1 Car,,07302-1615,Yes,,No,,,No,,,No,,2974,No,,Yes,,No,,,No,,,No,,264,9th St,Historic Downtown,Jersey City,07302,40.728517500000002,-74.045827599999996
80,80004519,Condominium,SOLD,Secaucus,743 10TH ST,D,"$375,000 ",3.0,2,0,4/2/2008,6/10/2008,,1750.0,6.0,,0,231.0,,,1 Car,,07094-2926,No,,Yes,,,No,,,Yes,,3375,No,,No,,No,,,No,,,No,,743,10th St,Not Found,Secaucus,07094,40.794648600000002,-74.068264299999996
81,80004936,Condominium,SOLD,"JC, Downtown",384 2ND ST,1,"$375,000 ",2.0,1,41,4/10/2008,6/13/2008,,850.0,5.0,,41,353.0,,,Other-See Remarks,,07302-5603,No,,Yes,,,No,,,Yes,,5350,No,,No,,No,,,No,,,No,,384,2nd St,Historic Downtown,Jersey City,07302,40.723055600000002,-74.050511
82,70008302,Condominium,SOLD,"JC, Downtown",201 LUIS M MARIN BLVD,1113,"$375,000 ",0.0,1,6,6/19/2007,6/16/2008,,596.0,3.0,,6,274.0,,,"Covered, Other-See Remarks",,7302,Yes,,Yes,,,No,,,Yes,,6375,No,,Yes,,Yes,,,Yes,,,Yes,,Not Found,Luis Munoz Marin Blvd,Not Found,Jersey City,07310,40.734255999999988,-74.039068700000001
83,80001085,Condominium,SOLD,"JC, Downtown",689 LUIS M MARIN BLVD,1005,"$375,000 ",1.0,1,104,1/20/2008,6/17/2008,,833.0,4.0,,100,579.0,,,Other-See Remarks,,07310-1258,Yes,,Yes,,,Yes,,,Yes,,7287,Yes,,Yes,,Yes,,,No,,,No,,689,Luis Munoz Marin Blvd,Not Found,Jersey City,07310,40.735581099999997,-74.038875699999991
84,80004503,Condominium,SOLD,"JC, Downtown",204 WASHINGTON ST,4A,"$375,000 ",1.0,1,8,3/31/2008,7/18/2008,,600.0,3.0,,7,225.0,,,None,,07302-4555,No,,No,,,Yes,,,Yes,,0,No,,No,,No,,,Yes,,,No,,204,Washington St,Not Found,Hoboken,07030,40.739018899999998,-74.030651300000002
85,80004506,Condominium,SOLD,"JC, Downtown",208 WASHINGTON ST,4B,"$375,000 ",1.0,1,1,3/31/2008,7/23/2008,,600.0,3.0,,0,225.0,,,None,,7302,No,,No,,,Yes,,,Yes,,0,No,,No,,No,,,Yes,,,No,,208,Washington St,Not Found,Hoboken,07030,40.739176999999998,-74.030703000000003
86,80004461,Condominium,SOLD,Hoboken,551 OBSERVER HIGHWAY,12H,"$375,000 ",1.0,1,86,3/30/2008,8/13/2008,,806.0,4.0,,84,496.0,,,1 Car,,07030-6564,Yes,,No,,,Yes,,,No,,3837,Yes,,Yes,,Yes,,,Yes,,,Yes,,551,Observer Hwy,Not Found,Hoboken,07030,40.737090500000001,-74.039870699999994
87,80000193,Condominium,SOLD,Hoboken,309-311 1ST ST,3C,"$375,000 ",1.0,1,199,1/5/2008,8/26/2008,,700.0,3.0,,198,179.0,,,None,,7030,No,,No,,,No,,,No,,0,No,,No,,No,,,No,,,No,,311,1st St,Not Found,Hoboken,07030,40.738193899999999,-74.035154599999998
88,80009250,Condominium,SOLD,Hoboken,157 14TH ST,4L,"$375,000 ",1.0,1,19,7/8/2008,9/2/2008,,700.0,4.0,,19,218.0,,,Other-See Remarks,,07030-4473,No,,Yes,,,No,,,No,,3738,No,,No,,No,,,No,,,No,,157,14th St,Not Found,Hoboken,07030,40.753476800000001,-74.0274012
89,80007039,Condominium,SOLD,Hoboken,405 4TH ST,1B,"$375,000 ",1.0,1,71,5/21/2008,9/5/2008,,582.0,3.0,,71,215.0,,,Other-See Remarks,,7030,No,,Yes,,,No,,,Yes,,0,No,,No,,No,,,No,,,No,,405,4th St,Not Found,Hoboken,07030,40.742242999999988,-74.035555299999999
90,80004505,Condominium,SOLD,"JC, Downtown",206 WASHINGTON ST,4B,"$375,000 ",1.0,1,8,3/31/2008,9/24/2008,,600.0,3.0,,7,225.0,,,None,,07302-4557,No,,No,,,Yes,,,Yes,,0,No,,No,,No,,,Yes,,,No,,206,Washington St,Not Found,Hoboken,07030,40.739060100000003,-74.030466099999998
91,80001102,One Family,SOLD,Secaucus,751 HUDSON AVE,,"$375,000 ",3.0,2,123,1/11/2008,9/26/2008,,,11.0,,110,,,"2 Cars, Attached, Garage",,,07094-3334,,No,,,,,No,Yes,,,4513,,,,,,,No,,,No,,,751,Hudson Ave,Not Found,Secaucus,07094,40.793444200000003,-74.065866900000003
92,70011271,One Family,SOLD,Newark,429-433 RIDGE ST,,"$375,000 ",5.0,4,336,8/21/2007,9/26/2008,,,11.0,,337,,,3+ Cars,,,07104-1421,,No,,,,,No,No,,,7285,,,,,,,No,,,No,,,433,Ridge St,Forest Hill,Newark,07104,40.768017,-74.172065199999992
93,80007041,Condominium,SOLD,Hoboken,405 4TH ST,2B,"$375,000 ",1.0,1,69,5/21/2008,10/3/2008,,601.0,3.0,,69,224.0,,,Other-See Remarks,,7030,No,,Yes,,,No,,,Yes,,0,No,,No,,No,,,No,,,No,,405,4th St,Not Found,Hoboken,07030,40.742242999999988,-74.035555299999999
94,80006563,One Family,SOLD,Fairview,724 PROBST AVE,,"$375,000 ",3.0,2,141,5/12/2008,11/3/2008,,,10.0,,141,,,3+ Cars,,,7022,,No,,,,,No,No,,,6775,,,,,,,No,,,No,,,724,Probst Ave,Not Found,Fairview,07022,40.821618000000001,-74.00688199999999
95,80011632,Condominium,SOLD,Bayonne,4 MARINA DR,1,"$375,000 ",2.0,3,21,9/3/2008,11/13/2008,,1800.0,7.0,,20,290.0,,,"1 Car, Garage",,07002-1275,No,,Yes,,,Yes,,,Yes,,"10,900",No,,No,,No,,,No,,,Yes,,4,Marina Dr,Constable Hook,Bayonne,07002,40.655961099999999,-74.136465799999996
96,70014313,Condominium,SOLD,"JC, Downtown",154 STEUBEN ST,301,"$375,000 ",1.0,1,238,10/22/2007,11/15/2008,,670.0,4.0,,238,259.0,,,Other-See Remarks,,07302-2939,Yes,,Yes,,,No,,,Yes,,0,No,,No,,No,,,No,,,No,,154,Steuben St,Downtown Jersey City,Jersey City,07302,40.719383899999997,-74.039931899999999
97,80007350,Condominium,SOLD,"JC, Downtown",65 2ND ST,710,"$375,000 ",1.0,1,159,5/27/2008,11/26/2008,,760.0,4.0,,157,470.0,,,"1 Car, Covered, Garage",,07302-3005,Yes,,No,,,No,,,No,,7030,Yes,,Yes,,No,,,Yes,,,Yes,,65,2nd St,The Waterfront,Jersey City,07032,40.721351899999988,-74.035266399999998
98,80009671,Condominium,SOLD,"JC, Downtown",186 WAYNE ST,423D,"$375,000 ",2.0,2,135,7/17/2008,1/6/2009,,1011.0,4.0,,135,578.0,,,1 Car,,07302-3440,No,,Yes,,,Yes,,,Yes,,6204,No,,Yes,,No,,,No,,,No,,186,Wayne St,Historic Downtown,Jersey City,07302,40.721131799999988,-74.050828799999991
99,80013142,Condominium,SOLD,Hoboken,600 CLINTON ST,3R,"$375,000 ",1.0,1,103,10/3/2008,2/9/2009,,608.0,4.0,,103,150.0,,,None,,7030,No,,Yes,,,No,,,Yes,,0,No,,No,,No,,,No,,,No,,600,Clinton St,Not Found,Hoboken,07030,40.744451099999999,-74.033974399999991
100,80004301,Condominium,SOLD,"JC, Downtown",201 LUIS M MARIN BLVD,915,"$375,000 ",1.0,1,311,3/28/2008,3/27/2009,,780.0,3.0,,311,359.0,,,Other-See Remarks,,7302,Yes,,Yes,,,No,,,Yes,,0,Yes,,Yes,,No,,,No,,,Yes,,Not Found,Luis Munoz Marin Blvd,Not Found,Jersey City,07310,40.734255999999988,-74.039068700000001
101,90001867,Condominium,SOLD,Hoboken,400 9TH ST,W3C,"$375,000 ",1.0,1,31,2/13/2009,5/1/2009,,803.0,4.0,,32,229.0,,,None,,7030,Yes,,Yes,,,No,,,Yes,,6856,No,,Yes,,No,,,No,,,No,,400,9th St,Not Found,Hoboken,07030,40.748277100000003,-74.0334766
102,80015338,Condominium,SOLD,"JC, West Bergen",4 PAULUSEN CT,1,"$375,000 ",2.0,3,70,11/30/2008,5/22/2009,,1491.0,5.0,,70,245.0,,,"2 Cars, Garage",,07305-5518,No,,Yes,,,No,,,Yes,,6000,No,,No,,No,,,No,,,Yes,,Not Found,Paulusen Ct,Hackensack River Waterfront,Jersey City,07305,40.710968000000001,-74.103401199999993
103,80015886,Condominium,SOLD,Guttenberg,7004 BLVD EAST,41 D,"$375,000 ",2.0,3,119,12/15/2008,7/7/2009,,1900.0,5.0,,118,1330.0,,,3+ Cars,,07093-5055,Yes,,Yes,,,No,,,No,,"11,575",Yes,,Yes,,Yes,,,Yes,,,No,,Not Found,Guttenberg St,Not Found,Egg Harbor City,08215,39.539751000000003,-74.617420999999993
104,90001548,Condominium,SOLD,Hoboken,807 CLINTON ST,2 B,"$375,000 ",1.0,1,138,2/5/2009,7/30/2009,,881.0,3.0,,137,240.0,,,"1 Car, Covered, Garage",,07030-2977,Yes,,Yes,,,Yes,,,Yes,,5722,No,,No,,No,,,No,,,No,,807,Clinton St,Not Found,Hoboken,07030,40.747165500000001,-74.032664499999996
105,90006862,Condominium,SOLD,Hoboken,117 CLINTON ST,#1F,"$375,000 ",1.0,1,60,6/2/2009,9/21/2009,,720.0,4.0,,60,145.0,,,Other-See Remarks,,07030-2595,No,,No,,,No,,,No,,4692,No,,No,,No,,,No,,,No,,117,Clinton St,Not Found,Hoboken,07030,40.738902199999998,-74.035323599999998
106,90003667,One Family,SOLD,"JC, Greenville",285 SEAVIEW AVE,,"$375,000 ",5.0,3,129,3/21/2009,9/23/2009,,,8.0,,129,,,"1 Car, Garage",,,07305-1716,,Yes,,,,,No,Yes,,,8000,,,,,,,No,,,No,,,285,Seaview Ave,Greenville,Jersey City,07305,40.696211400000003,-74.099524299999999
107,80014112,Condominium,SOLD,"JC, Downtown",369 5TH ST,9,"$375,000 ",2.0,2,357,10/27/2008,10/23/2009,,1075.0,5.0,,357,,,,"1 Car, Covered",,7302,Yes,,Yes,,,Yes,,,Yes,,,No,,No,,No,,,No,,,No,,369,5th St,Not Found,Hoboken,07030,40.743213500000003,-74.03517149999999
108,90008812,One Family,SOLD,"JC, Journal Square",167 FAIRVIEW AVE,,"$375,000 ",4.0,2,60,7/13/2009,10/29/2009,,,10.0,,58,,,1 Car,,,07304-1801,,No,,,,,No,No,,,5440,,,,,,,No,,,No,,,167,Fairview Ave,West Side,Jersey City,07304,40.724763000000003,-74.075162700000007
109,90004998,Condominium,SOLD,"JC, West Bergen",5 SMIT CT,1,"$375,000 ",2.0,3,164,4/20/2009,11/17/2009,,1491.0,5.0,,164,245.0,,,"2 Cars, Garage",,07305-5509,No,,Yes,,,No,,,Yes,,6600,No,,No,,No,,,Yes,,,Yes,,Not Found,Smit Ct,Hackensack River Waterfront,Jersey City,07305,40.710313800000002,-74.104783099999992
110,90006677,Condominium,SOLD,"JC, West Bergen",39 LOCUST ST,1,"$375,000 ",3.0,3,159,5/28/2009,12/11/2009,,1676.0,7.0,,159,220.0,,,"1 Car, Garage",,07305-4860,No,,Yes,,,Yes,,,Yes,,6000,No,,No,,No,,,No,,,Yes,,39,Locust St,Hackensack River Waterfront,Jersey City,07305,40.707211899999997,-74.105004699999995
111,90004062,One Family,SOLD,Bayonne,88 WEST 31ST ST,88,"$375,000 ",4.0,2,187,3/31/2009,12/21/2009,,,10.0,,187,,,"3+ Cars, Garage, Detached",,,07002-2805,,No,,,,,Yes,Yes,,,"10,215",,,,,,,No,,,No,,,88,W 31st St,Constable Hook,Bayonne,07002,40.671669999999999,-74.117060999999993
112,100000425,Condominium,SOLD,Hoboken,635 6TH ST,2C,"$375,000 ",2.0,2,22,10/12/2009,1/12/2010,,1130.0,4.0,,0,264.0,,,1 Car,,7030,Yes,,Yes,,,No,,,Yes,,,No,,No,,No,,,No,,,No,,635,6th St,Not Found,Hoboken,07030,40.745186799999999,-74.03895399999999
113,90011480,Condominium,SOLD,Hoboken,1500 HUDSON ST,2K,"$375,000 ",1.0,1,98,9/15/2009,2/26/2010,,735.0,4.0,,96,357.0,,,None,,07030-6743,Yes,,No,,,No,,,Yes,,5302,Yes,,Yes,,Yes,,,No,,,No,,1500,Hudson St,Not Found,Hoboken,07030,40.754604999999998,-74.025625199999993
114,80011283,One Family,SOLD,Hoboken,29 WILLOW TERRACE,,"$375,000 ",2.0,1,577,8/24/2008,3/25/2010,,,5.0,,576,,,Other-See Remarks,,,07030-2810,,No,,,,,No,No,,,4713,,,,,,,No,,,No,,,29,Willow Terrace S,Not Found,Hoboken,07030,40.744700399999999,-74.033236899999991
115,90013647,One Family,SOLD,Bayonne,100-102 HUMPHREY AVE,1,"$375,000 ",6.0,2,83,11/2/2009,4/13/2010,,,13.0,,83,,,"3+ Cars, Garage, Tandem-Private",,,07002-1135,,No,,,,,No,Yes,,,7709,,,,,,,No,,,No,,,102,Humphrey Ave,Constable Hook,Bayonne,07002,40.650460900000013,-74.134300699999997
116,100001136,Condominium,SOLD,Fort Lee,156 LYNETTE DR,156,"$375,000 ",3.0,2,62,1/26/2010,4/14/2010,,1430.0,7.0,,61,352.0,No,,1 Car,,07024-2174,No,,Yes,,,Yes,,,Yes,,5865,No,,Yes,,No,,,No,,,No,,Not Found,Lynette Dr,Not Found,Fort Lee,07024,40.853496,-73.983444800000001
117,100004884,Condominium,SOLD,Hoboken,70 ADAMS ST,4B,"$375,000 ",1.0,1,22,4/15/2010,5/17/2010,,735.0,4.0,,23,166.0,No,,Other-See Remarks,,07030-8437,Yes,,Yes,,,No,,,Yes,,6109,No,,Yes,,No,,,Yes,,,No,,70,Adams St,Not Found,Hoboken,07030,40.737883199999999,-74.037576400000006
118,100000989,Condominium,SOLD,Hoboken,222 GRAND ST,3E,"$375,000 ",1.0,1,55,1/25/2010,5/19/2010,,745.0,4.0,,55,243.0,No,,Other-See Remarks,,07030-2589,Yes,,No,,,No,,,No,,6611,No,,No,,No,,,No,,,No,,222,Grand St,Not Found,Hoboken,07030,40.7405513,-74.035762199999994
119,100002600,Condominium,SOLD,"JC, Downtown",205 10TH ST,7P,"$375,000 ",2.0,2,40,2/28/2010,5/26/2010,,1150.0,5.0,,39,715.0,No,,None,,07302-1421,Yes,,No,,,No,,,Yes,,7499,Yes,,Yes,,No,,,No,,,No,,205,E 10th St,Lower Manhattan,New York,10003,40.729734000000001,-73.986122999999992
120,90015367,Condominium,SOLD,"JC, Downtown",187 WAYNE ST,411C,"$375,000 ",2.0,2,104,12/22/2009,5/30/2010,,1004.0,4.0,,104,574.0,No,,1 Car,,07302-6306,Yes,,Yes,,,No,,,Yes,,6852,No,,Yes,,Yes,,,No,,,No,,187,Wayne St,Historic Downtown,Jersey City,07302,40.720981599999988,-74.050518999999994
121,100004002,Condominium,SOLD,"JC, West Bergen",14 ROOSEVELT STADIUM CT,1,"$375,000 ",2.0,3,23,3/26/2010,6/10/2010,,1491.0,5.0,,23,254.0,No,,2 Cars,,07305-5519,No,,Yes,,,No,,,Yes,,6600,No,,No,,Yes,,,Yes,,,Yes,,14,Roosevelt Stadium Ct,Hackensack River Waterfront,Jersey City,07305,40.711261800000003,-74.102711799999994
122,100003600,Condominium,SOLD,Hoboken,151 2ND ST,4A,"$375,000 ",1.0,1,40,3/19/2010,6/18/2010,,650.0,4.0,,40,217.0,,,Other-See Remarks,,07030-3759,Yes,,No,,,No,,,No,,5539,No,,No,,No,,,No,,,No,,151,2nd St,Not Found,Hoboken,07030,40.738874299999999,-74.031402900000003
123,100000622,One Family,SOLD,"JC, Journal Square",78 COTTAGE ST,,"$375,000 ",4.0,1,78,1/18/2010,6/21/2010,No,,7.0,,78,,,2 Cars,,,07306-2802,,Yes,,,,,No,No,,,5520,,,,,,,No,,,No,,,78,Cottage St,Journal Square,Jersey City,07306,40.7345598,-74.062947499999993
124,100000883,Condominium,SOLD,"JC, West Bergen",23 FOX HOUND CT,3G,"$375,000 ",2.0,3,100,1/19/2010,6/28/2010,,1491.0,5.0,,97,254.0,No,,"1 Car, Attached, Garage",,07305-5516,No,,Yes,,,Yes,,,Yes,,6445,No,,Yes,,No,,,No,,,No,,Not Found,Not Found,Not Found,Not Found,Not Found,40.926276199999997,-74.077010000000001
125,90015365,Condominium,SOLD,"JC, Downtown",357 VARICK ST,123B,"$375,000 ",2.0,2,79,12/22/2009,6/29/2010,,1153.0,4.0,,79,659.0,No,,1 Car,,07302-3460,Yes,,Yes,,,No,,,Yes,,6876,No,,Yes,,Yes,,,No,,,No,,357,Varick St,Downtown Jersey City,Jersey City,07302,40.7205485,-74.04851330000001
126,90013786,Condominium,SOLD,"JC, Downtown",20 2ND ST,2510,"$375,000 ",1.0,1,185,11/4/2009,6/29/2010,,700.0,3.0,,185,389.0,,,1 Car,,07302-3084,Yes,,No,,,No,,,Yes,,6200,Yes,,Yes,,No,,,Yes,,,Yes,,20,2nd St,The Waterfront,Jersey City,07310,40.721702800000003,-74.033280599999998
127,100005703,Condominium,SOLD,Bayonne,4 MARINA DR,TH,"$375,000 ",2.0,3,33,4/30/2010,7/14/2010,,1800.0,7.0,,33,315.0,No,,"2 Cars, Garage",,07002-1275,No,,Yes,,,Yes,,,Yes,,"10,000",No,,No,,No,,,No,,,No,,4,Marina Dr,Constable Hook,Bayonne,07002,40.655961099999999,-74.136465799999996
128,100007373,Condominium,SOLD,"JC, West Bergen",24 FOX HOUND CT,1,"$375,000 ",2.0,3,18,6/4/2010,8/16/2010,,1491.0,5.0,,18,254.0,No,,"2 Cars, Garage",,07305-5516,No,,Yes,,,No,,,Yes,,6600,No,,No,,Yes,,,Yes,,,Yes,,Not Found,Not Found,Not Found,Not Found,Not Found,40.926276199999997,-74.077010000000001
129,90013462,Condominium,SOLD,Secaucus,540 TEAL PLAZA,540,"$375,000 ",2.0,3,264,10/28/2009,8/26/2010,,1718.0,5.0,,264,510.0,No,,"2 Cars, Attached, Covered",,07094-2218,No,,Yes,,,Yes,,,Yes,,5359,Yes,,No,,No,,,No,,,No,,540,Teal Plaza,Not Found,Secaucus,07094,40.785545300000003,-74.076929399999997
130,100009024,Condominium,SOLD,"JC, West Bergen",13 SURRY CT,1,"$375,000 ",2.0,3,13,7/12/2010,9/24/2010,,1491.0,5.0,No,13,254.0,No,,"2 Cars, Garage",,07305-5504,No,,Yes,,,Yes,,,Yes,,6600,No,,No,,Yes,,,No,,,No,,Not Found,Surry Ct,Hackensack River Waterfront,Jersey City,07305,40.710353599999998,-74.105256099999991
131,100006626,Condominium,SOLD,Hoboken,1500 GARDEN ST,3J,"$375,000 ",0.0,1,104,5/18/2010,10/29/2010,,735.0,2.0,,103,381.0,No,,"Covered, Other-See Remarks, Detached",,7030,Yes,,Yes,,,No,,,Yes,,5817,Yes,,Yes,,No,,,No,,,No,,1500,Garden St,Not Found,Hoboken,07030,40.754775100000003,-74.027605299999991
132,100011326,Condominium,SOLD,Secaucus,786 SPINNAKER CT,786,"$375,000 ",3.0,3,34,9/3/2010,11/22/2010,,1704.0,6.0,No,34,386.0,No,,"2 Cars, Attached, Covered, Tandem-Private",,07094-2233,No,,Yes,,,Yes,,,Yes,,4768,No,,No,,No,,,No,,,No,,786,Spinnaker Ct,Not Found,Secaucus,07094,40.784500000000001,-74.079135100000002
133,100005958,Condominium,SOLD,"JC, Downtown",201 LUIS M MARIN BLVD,716,"$375,000 ",1.0,1,142,5/5/2010,12/15/2010,,780.0,3.0,,141,369.0,Yes,,"1 Car, Garage",,7302,Yes,,Yes,,,No,,,No,,6900,Yes,,Yes,,No,,,No,,,Yes,,Not Found,Luis Munoz Marin Blvd,Not Found,Jersey City,07310,40.734255999999988,-74.039068700000001
134,100014340,Condominium,SOLD,"JC, Downtown",205 10TH ST,3E,"$375,000 ",1.0,2,15,11/15/2010,12/30/2010,,1500.0,5.0,No,15,525.0,No,,Other-See Remarks,,7302,Yes,,No,,,Yes,,,Yes,,8139,Yes,,Yes,,No,,,No,,,No,,205,E 10th St,Lower Manhattan,New York,10003,40.729734000000001,-73.986122999999992
135,100011519,Condominium,SOLD,"JC, West Bergen",24 TOTTENHAM CT,1,"$375,000 ",2.0,3,54,9/9/2010,1/5/2011,,1491.0,5.0,No,54,254.0,No,,"2 Cars, Garage",,07305-5502,No,,Yes,,,Yes,,,Yes,,6600,No,,No,,Yes,,,No,,,Yes,,Not Found,Tottenham Ct,Hackensack River Waterfront,Jersey City,07305,40.710865099999999,-74.106982700000003
136,100012034,Condominium,SOLD,"JC, Downtown",420 1ST ST,2,"$375,000 ",3.0,2,30,9/20/2010,1/14/2011,,1202.0,7.0,No,30,170.0,No,,Other-See Remarks,,7302,No,,Yes,,,No,,,Yes,,5797,No,,No,,No,,,No,,,No,,420,1st St,Historic Downtown,Jersey City,07302,40.723014200000001,-74.052885899999993
137,100014602,One Family,SOLD,Rutherford,200 IRVING PL,,"$375,000 ",0.0,0,85,11/21/2010,3/4/2011,No,,0.0,,84,,,"2 Cars, Garage, Detached",,,07070-1915,,No,,,,,No,No,,,,,,,,,,No,,,No,,,200,Irving Pl,Not Found,Rutherford,07070,40.829349999999998,-74.110012000000012
138,100014300,Condominium,SOLD,"JC, West Bergen",11 SURRY CT,20F,"$375,000 ",2.0,3,99,11/10/2010,3/30/2011,,1491.0,6.0,No,94,254.0,No,,"2 Cars, Garage",,7305,No,,Yes,,,Yes,,,Yes,,7413,No,,Yes,,No,,,No,,,No,,Not Found,Surry Ct,Hackensack River Waterfront,Jersey City,07305,40.710353599999998,-74.105256099999991
139,100013719,Condominium,SOLD,"JC, Downtown",134 MORRIS ST,2,"$375,000 ",2.0,2,94,10/29/2010,3/30/2011,,1000.0,5.0,No,93,245.0,No,,None,,7302,No,,No,,,Yes,,,No,,7621,No,,No,,No,,,No,,,No,,134,Morris St,The Waterfront,Jersey City,07302,40.714149200000001,-74.040297799999991
140,100013035,Condominium,SOLD,Hoboken,300 NEWARK ST,6J,"$375,000 ",1.0,1,121,10/13/2010,4/8/2011,,800.0,4.0,No,121,270.0,No,,"1 Car, Garage, Tandem-Shared",,07030-2448,Yes,,No,,,Yes,,,No,,6400,No,,Yes,,No,,,No,,,No,,300,Newark St,Not Found,Hoboken,07030,40.737554600000003,-74.034713099999991
141,100013911,Condominium,SOLD,"JC, Downtown",9 COLES ST,9,"$375,000 ",2.0,2,91,11/4/2010,4/17/2011,,1209.0,4.0,,91,316.0,,,None,,7302,No,,Yes,,,No,,,Yes,,5184,No,,No,,No,,,No,,,No,,9,Coles St,Downtown Jersey City,Jersey City,07302,40.7216162,-74.048023999999998
142,100013491,Condominium,SOLD,"JC, Downtown",369 5TH ST,10,"$375,000 ",2.0,2,155,10/26/2010,5/6/2011,,1085.0,5.0,,155,305.0,,,1 Car,,7302,Yes,,Yes,,,No,,,Yes,,5900,No,,No,,No,,,No,,,No,,369,5th St,Not Found,Hoboken,07030,40.743213500000003,-74.03517149999999
143,110002949,Condominium,SOLD,"JC, Downtown",102 CHRISTOPHER COLUMBUS DR,902,"$375,000 ",1.0,1,37,3/14/2011,5/16/2011,,750.0,4.0,,38,481.0,,,"Garage, Other-See Remarks",,7302,Yes,,No,,,No,,,Yes,,9353,Yes,,Yes,,Yes,,,No,,,No,,102,Christopher Columbus Dr,The Waterfront,Jersey City,07302,40.719551000000003,-74.042124600000008
144,110003644,Condominium,SOLD,Hoboken,222 GRAND ST,3D,"$375,000 ",1.0,1,20,3/29/2011,5/25/2011,,735.0,5.0,,20,275.0,No,,Other-See Remarks,,07030-2589,No,,No,,,No,,,No,,6277,No,,No,,No,,,No,,,No,,222,Grand St,Not Found,Hoboken,07030,40.7405513,-74.035762199999994
145,100011941,Condominium,SOLD,"JC, Downtown",689 LUIS M MARIN BLVD,PH 2D,"$375,000 ",1.0,2,180,9/17/2010,6/3/2011,,864.0,4.0,No,180,555.0,No,,"1 Car, Covered, Garage",,07310-1260,Yes,,Yes,,,Yes,,,Yes,,9793,Yes,,Yes,,No,,,Yes,,,Yes,,689,Luis Munoz Marin Blvd,Not Found,Jersey City,07310,40.735581099999997,-74.038875699999991
146,110003720,Condominium,SOLD,Hoboken,214-216 JACKSON ST,7,"$375,000 ",3.0,2,22,3/30/2011,6/6/2011,,1336.0,6.0,No,22,323.0,No,,"Other-See Remarks, None",,7030,No,,Yes,,,No,,,Yes,,9831,No,,No,,No,,,No,,,No,,216,Jackson St,Not Found,Hoboken,07030,40.741158800000008,-74.04049719999999
147,100013263,Condominium,SOLD,Hoboken,300 NEWARK ST,7L,"$375,000 ",1.0,1,181,10/19/2010,6/15/2011,,830.0,4.0,,180,263.0,,,"1 Car, Other-See Remarks",,07030-2449,Yes,,No,,,Yes,,,No,,6168,No,,Yes,,No,,,No,,,No,,300,Newark St,Not Found,Hoboken,07030,40.737554600000003,-74.034713099999991
148,110005121,One Family,SOLD,Secaucus,182 PANDOLFI AVE,,"$375,000 ",4.0,1,18,4/28/2011,6/21/2011,,,8.0,,17,,,"1 Car, Garage",,,07094-3137,,Yes,,,,,No,Yes,,,5516,,,,,,,No,,,No,,,182,Pandolfi Ave,Not Found,Secaucus,07094,40.788150700000003,-74.061662499999997
149,110002433,Condominium,SOLD,"JC, Downtown",245 8TH ST,201,"$375,000 ",2.0,2,18,3/3/2011,6/27/2011,,760.0,4.0,No,20,254.0,No,,Other-See Remarks,,7302,No,,Yes,,,No,,,No,,4473,No,,No,,No,,,No,,,No,,245,8th St,Not Found,Hoboken,07030,40.746496399999998,-74.030968599999994
150,110002196,Condominium,SOLD,"JC, West Bergen",7 RUBY CT,1,"$375,000 ",2.0,3,110,2/24/2011,7/22/2011,,1700.0,7.0,No,110,266.0,No,,"1 Car, Garage",,7305,No,,Yes,,,Yes,,,Yes,,7400,No,,No,,No,,,Yes,,,Yes,,7,Ruby Ct,Hackensack River Waterfront,Jersey City,07305,40.711538900000001,-74.105237099999997
151,110003994,Condominium,SOLD,Hoboken,556 1ST ST,9,"$375,000 ",2.0,1,73,4/5/2011,8/3/2011,,918.0,6.0,,73,230.0,,,None,,07030-6509,No,,No,,,Yes,,,Yes,,5869,No,,No,,No,,,No,,,No,,556,1st St,Not Found,Hoboken,07030,40.739026199999998,-74.039444599999996
152,100010762,Cooperative,SOLD,Union City,380 MOUNTAIN RD,2103,"$375,000 ",2.0,2,345,8/18/2010,8/25/2011,,1300.0,5.0,,344,1505.0,No,,Garage,,07087-7340,Yes,,Yes,,,No,,,No,,,Yes,,Yes,,No,,,Yes,,,Yes,,380,Mountain Rd,Not Found,Union City,07087,40.761033599999998,-74.029517099999993
153,110007068,Condominium,SOLD,Hoboken,222 GRAND ST,2E,"$375,000 ",1.0,1,32,6/13/2011,9/2/2011,,745.0,5.0,No,32,280.0,No,,None,,07030-2588,Yes,,No,,,No,,,Yes,,6168,No,,No,,No,,,No,,,No,,222,Grand St,Not Found,Hoboken,07030,40.7405513,-74.035762199999994
154,110005579,Cooperative,SOLD,Weehawken,875 BLVD EAST,3,"$375,000 ",3.0,2,65,5/9/2011,9/29/2011,,1800.0,7.0,No,65,1275.0,No,,None,,7086,Yes,,Yes,,,No,,,No,,,No,,No,,No,,,Yes,,,Yes,,500,Boulevard E,Not Found,Weehawken,07086,40.764530999999998,-74.02249599999999
155,110010439,Condominium,SOLD,Hoboken,626 PARK AVE,3,"$375,000 ",2.0,1,39,9/8/2011,10/27/2011,,774.0,6.0,No,38,375.0,No,,None,,07030-3987,No,,No,,,Yes,,,No,,6598,No,,No,,No,,,No,,,No,,626,Park Ave,Not Found,Hoboken,07030,40.744708000000003,-74.031571500000013
156,110012951,One Family,SOLD,"JC, Journal Square",78 GAUTIER AVE,,"$375,000 ",4.0,2,12,11/16/2011,1/29/2012,No,,8.0,No,12,,,"Other-See Remarks, None",,,7306,,Yes,,,,,No,Yes,,,5080,,,,,,,No,,,No,,,78,Gautier Ave,West Side,Jersey City,07306,40.726921300000001,-74.081126699999999
157,110011969,Condominium,SOLD,"JC, Downtown",202 WARREN ST,2,"$375,000 ",2.0,1,96,10/19/2011,3/6/2012,,908.0,6.0,No,97,366.0,No,,Other-See Remarks,,7302,No,,No,,,No,,,No,,9300,No,,No,,No,,,No,,,No,,202,Warren St,Downtown Jersey City,Jersey City,07302,40.714153499999988,-74.039698899999991
158,120001219,Condominium,SOLD,"JC, Downtown",201 3RD ST,3,"$375,000 ",2.0,1,66,1/31/2012,5/25/2012,,825.0,5.0,,66,191.0,,,None,,7302,No,,Yes,,,Yes,,,Yes,,7358,No,,No,,No,,,No,,,No,,201,3rd St,Historic Downtown,Jersey City,07302,40.723005200000003,-74.042966699999994
159,120002281,One Family,SOLD,"JC, Journal Square",180 HARRISON AVE,,"$375,000 ",3.0,2,60,2/27/2012,6/20/2012,No,,6.0,No,60,,,"1 Car, Garage, Detached",,,7304,,No,,,,,No,Yes,,,6959,,,,,,,No,,,No,,,180,Harrison Ave,West Side,Jersey City,07304,40.719792400000003,-74.0765885
160,120003559,Condominium,SOLD,Hoboken,650 2ND ST,3K,"$375,000 ",1.0,1,21,3/26/2012,7/2/2012,,817.0,3.0,,21,290.0,,,"1 Car, Covered",,07030-7662,Yes,,Yes,,,No,,,Yes,,5892,No,,No,,No,,,No,,,No,,650,2nd St,Not Found,Hoboken,07030,40.740738100000002,-74.041225499999996
161,120000845,One Family,SOLD,Hasbrouck Heights,21 WEBB PL,,"$375,000 ",4.0,2,211,1/18/2012,9/12/2012,No,,9.0,No,208,,,"1 Car, Attached, Other-See Remarks",,,07604-2408,,Yes,,,,,No,No,,,"11,237",,,,,,,Yes,,,No,,,21,Webb Pl,Not Found,Hasbrouck Heights,07604,40.853288900000003,-74.076577
162,120004506,One Family,SOLD,Union City,517 15TH ST,,"$375,000 ",4.0,2,95,4/16/2012,9/27/2012,No,,9.0,No,95,,,2 Cars,,,07087-3222,,Yes,,,,,No,No,,,"10,948",,,,,,,No,,,No,,,517,15th St,Not Found,Union City,07087,40.761786999999998,-74.037138999999996
163,120008607,Condominium,SOLD,West New York,6502 MADISON ST,B,"$375,000 ",3.0,3,37,7/19/2012,11/16/2012,,2500.0,7.0,No,36,,No,,"2 Cars, Garage, Tandem-Private",,07093-1636,No,,Yes,,,Yes,,,No,,6840,No,,No,,No,,,Yes,,,No,,6502,Madison St,Not Found,West New York,07093,40.793268500000003,-74.014057399999999
164,70010397,Condominium,SOLD,Hoboken,151 2ND ST,4A,"$375,113 ",1.0,1,3,8/1/2007,9/4/2007,,650.0,3.0,,3,218.0,,,None,,07030-3759,Yes,,No,,,Yes,,,No,,4238,No,,No,,No,,,No,,,No,,151,2nd St,Not Found,Hoboken,07030,40.738874299999999,-74.031402900000003
165,305890,Condominium,SOLD,Hoboken,800-830 GRAND ST,302,"$375,200 ",1.0,2,30,7/23/2003,5/12/2004,,1079.0,4.0,,29,198.0,,,Other-See Remarks,,7030,Yes,,Yes,,,No,,,Yes,,,No,,No,,Yes,,,No,,,No,,830,Grand St,Not Found,Hoboken,07030,40.747389699999999,-74.033715000000015
166,404376,Condominium,SOLD,Hoboken,800-830 GRAND ST,402,"$375,200 ",1.0,2,0,5/1/2004,5/13/2004,,1079.0,4.0,,0,198.0,,,Other-See Remarks,,7030,Yes,,Yes,,,No,,,Yes,,,No,,No,,Yes,,,No,,,No,,830,Grand St,Not Found,Hoboken,07030,40.747389699999999,-74.033715000000015
167,80004647,Condominium,SOLD,North Bergen,7400 RIVER RD,112,"$375,480 ",2.0,2,369,4/3/2008,6/15/2009,,1089.0,5.0,,369,525.0,,,"2 Cars, Garage",,7047,Yes,,No,,,Yes,,,Yes,,"10,000",Yes,,No,,No,,,No,,,No,,7400,River Rd,Not Found,North Bergen,07047,40.7924954,-73.997611699999993
168,404442,Condominium,SOLD,Hoboken,812 GRAND ST,214,"$375,482 ",2.0,2,39,4/1/2004,5/17/2004,,1187.0,4.0,,0,218.0,,,Other-See Remarks,,7030,Yes,,Yes,,,No,,,Yes,,,No,,No,,Yes,,,No,,,No,,812,Grand St,Not Found,Hoboken,07030,40.747159699999997,-74.033783999999997
169,60013988,Condominium,SOLD,Hoboken,41 1ST ST,4G,"$375,600 ",1.0,1,7,10/30/2006,1/9/2007,,680.0,4.0,,7,167.0,,,Other-See Remarks,,7030,No,,No,,,No,,,No,,4814,No,,No,,No,,,No,,,No,,41,1st St,Not Found,Hoboken,07030,40.737342699999999,-74.029933200000002
170,90001906,Condominium,SOLD,Hoboken,600 CLINTON ST,3F,"$375,600 ",1.0,1,0,2/13/2009,4/13/2009,,600.0,4.0,,0,180.0,,,None,,7030,No,,Yes,,,No,,,Yes,,0,No,,No,,No,,,No,,,No,,600,Clinton St,Not Found,Hoboken,07030,40.744451099999999,-74.033974399999991
171,504259,Condominium,SOLD,Hoboken,1300 GRAND ST,610,"$375,900 ",2.0,2,366,4/1/2004,5/2/2005,,1038.0,5.0,,0,,,,"1 Car, Attached, Covered, Garage",,7030,Yes,,Yes,,,No,,,Yes,,,No,,No,,Yes,,,No,,,No,,1300,Grand St,Not Found,Hoboken,07030,40.752978300000002,-74.031140100000002
172,504249,Condominium,SOLD,Hoboken,1300 GRAND ST,601,"$375,900 ",2.0,2,366,4/1/2004,5/10/2005,,1013.0,5.0,,0,,,,"1 Car, Attached, Covered, Garage",,7030,Yes,,Yes,,,No,,,Yes,,,No,,No,,Yes,,,No,,,No,,1300,Grand St,Not Found,Hoboken,07030,40.752978300000002,-74.031140100000002
173,406671,One Family,SOLD,North Bergen,617 80TH ST,,"$375,950 ",5.0,2,75,8/1/2004,11/4/2004,,,,,72,,,"2 Cars, 3+ Cars, Detached",,,7047,,No,,,,,No,Yes,,,4553,,,,,,,No,,,No,,,617,80th St,Not Found,North Bergen,07047,40.802875999999998,-74.007729999999995
174,506294,Condominium,SOLD,"JC, Downtown",133 GRAND ST,4A,"$375,950 ",1.0,1,46,7/11/2005,9/22/2005,,750.0,3.0,,43,289.0,,,None,,7302,No,,No,,,No,,,No,,3560,No,,No,,No,,,No,,,No,,133,Grand St,The Waterfront,Jersey City,07302,40.715510399999999,-74.039970699999998
175,407797,Condominium,SOLD,Hoboken,507 GARDEN ST,3,"$376,000 ",1.0,1,14,9/10/2004,11/5/2004,,775.0,5.0,,10,90.0,,,"Other-See Remarks, Detached",,7030,No,,No,,,No,,,Yes,,4084,No,,No,,No,,,No,,,No,,507,Garden St,Not Found,Hoboken,07030,40.742772000000002,-74.031179499999993
176,500057,Condominium,SOLD,"JC, Heights",136 OGDEN AVE,1N,"$376,000 ",3.0,2,29,1/3/2005,4/11/2005,,1320.0,7.0,,28,175.0,,,None,,7307,No,,No,,,Yes,,,Yes,,4500,No,,No,,No,,,Yes,,,No,,136,Ogden Ave,The Heights,Jersey City,07307,40.738444899999998,-74.046906199999995
177,60013919,One Family,SOLD,"JC, West Bergen",44 WOJTYCHA DR,,"$376,000 ",3.0,2,37,10/25/2006,1/12/2007,,,6.0,,35,,,2 Cars,,,7305,,No,,,,,No,Yes,,,6205,,,,,,,No,,,No,,,44,Msgr Wojtycha Dr,Greenville,Jersey City,07305,40.701547300000001,-74.0978827
178,80013530,One Family,SOLD,"JC, Journal Square",212 JEWETT AVE,,"$376,000 ",6.0,3,17,10/11/2008,12/16/2008,,,11.0,,15,,,2 Cars,,,07304-1804,,No,,,,,Yes,No,,,5898,,,,,,,No,,,No,,,212,Jewett Ave,West Side,Jersey City,07304,40.723906199999988,-74.075559299999995
179,90005095,One Family,SOLD,"JC, Journal Square",88 FAIRVIEW AVE,,"$376,000 ",6.0,5,40,4/22/2009,1/11/2010,,,13.0,,40,,,2 Cars,,,07304-2104,,No,,,,,No,No,,,6929,,,,,,,No,,,No,,,88,Fairview Ave,McGinley Square,Jersey City,07304,40.723545899999998,-74.072160499999995
180,100000186,Condominium,SOLD,Hoboken,463 1ST ST,8H,"$376,000 ",1.0,1,45,1/3/2010,4/22/2010,,726.0,4.0,,39,250.0,No,,1 Car,,07030-1860,Yes,,No,,,Yes,,,No,,4727,No,,No,,No,,,No,,,No,,463,1st St,Not Found,Hoboken,07030,40.738692,-74.038289399999996
181,100003077,Condominium,SOLD,Hoboken,1110 CLINTON ST,2,"$376,000 ",1.0,2,27,3/10/2010,5/27/2010,,772.0,5.0,,27,256.0,No,,1 Car,,07030-3275,No,,Yes,,,Yes,,,Yes,,6872,No,,No,,No,,,No,,,No,,1110,Clinton St,Not Found,Hoboken,07030,40.751072299999997,-74.031583299999994
182,90012278,Condominium,SOLD,Hoboken,307 1ST ST,4,"$376,000 ",1.0,2,189,10/2/2009,6/3/2010,,861.0,4.0,,189,231.0,,,None,,07030-2431,No,,Yes,,,No,,,Yes,,0,No,,No,,No,,,No,,,No,,307,1st St,Not Found,Hoboken,07030,40.738073300000003,-74.035057399999999
183,110005641,Condominium,SOLD,Hoboken,300 NEWARK ST,4J,"$376,000 ",1.0,1,16,5/10/2011,7/15/2011,,855.0,4.0,,16,275.0,,,"1 Car, Other-See Remarks",,07030-2447,Yes,,No,,,Yes,,,No,,5931,No,,Yes,,No,,,No,,,No,,300,Newark St,Not Found,Hoboken,07030,40.737554600000003,-74.034713099999991
184,110009891,Condominium,SOLD,"JC, Downtown",20 2ND ST,2410,"$376,000 ",1.0,1,11,8/22/2011,10/28/2011,,700.0,3.0,,11,394.0,,,"1 Car, Covered",,7302,Yes,,No,,,No,,,Yes,,6700,Yes,,Yes,,No,,,Yes,,,Yes,,20,2nd St,The Waterfront,Jersey City,07310,40.721702800000003,-74.033280599999998
185,90013632,Condominium,SOLD,"JC, Downtown",369-373 5TH ST,8,"$376,500 ",2.0,2,17,11/1/2009,12/24/2009,,1090.0,5.0,,18,305.0,,,"1 Car, Covered",,7302,Yes,,Yes,,,No,,,Yes,,5900,No,,No,,No,,,No,,,No,,373,5th St,Not Found,Hoboken,07030,40.743220200000003,-74.035208299999994
186,503976,Condominium,SOLD,Hoboken,1300 GRAND ST,420,"$376,900 ",2.0,2,62,4/27/2004,4/29/2005,,1100.0,4.0,,0,282.0,,,1 Car,,7030,Yes,,Yes,,,No,,,Yes,,4000,No,,Yes,,No,,,No,,,No,,1300,Grand St,Not Found,Hoboken,07030,40.752978300000002,-74.031140100000002
187,308934,Condominium,SOLD,"JC, Downtown",136 NEWARK AVE,4,"$377,000 ",2.0,1,187,11/5/2003,5/28/2004,,1000.0,5.0,,182,,,,None,,,No,,Yes,,,Yes,,,Yes,,,No,,Yes,,Yes,,,No,,,No,,136,Newark Ave,Downtown Jersey City,Jersey City,07302,40.7202038,-74.0434032
188,404416,Condominium,SOLD,Hoboken,131 MONROE ST,15,"$377,000 ",2.0,2,33,5/20/2004,7/22/2004,,805.0,4.0,,28,149.0,,,None,,7030,No,,Yes,,,Yes,,,Yes,,5491,No,,No,,No,,,No,,,No,,131,Monroe St,Not Found,Hoboken,07030,40.740186399999999,-74.039823599999991
189,409260,Condominium,SOLD,Hoboken,635 MADISON ST,2B,"$377,000 ",2.0,1,42,8/10/2004,10/29/2004,,940.0,5.0,,0,185.0,,,None,,7030,No,,No,,,No,,,Yes,,4214,No,,No,,No,,,No,,,No,,635,Madison St,Not Found,Hoboken,07030,40.746124999999999,-74.037044899999998
190,501532,Condominium,SOLD,Hoboken,1015 WASHINGTON ST,43,"$377,000 ",1.0,1,6,2/23/2005,4/18/2005,,700.0,3.0,,5,228.0,,,None,,7030,Yes,,No,,,No,,,No,,3643,No,,No,,No,,,No,,,No,,1015,Washington St,Not Found,Hoboken,07030,40.749025500000002,-74.027330800000001
191,501717,Condominium,SOLD,"JC, West Bergen",36 HOLLY ST,36,"$377,000 ",3.0,2,80,2/26/2005,6/30/2005,,1550.0,6.0,,76,176.0,,,1 Car,,7305,No,,Yes,,,Yes,,,Yes,,4624,Yes,,No,,No,,,No,,,No,,36,Holly St,Hackensack River Waterfront,Jersey City,07305,40.706206799999997,-74.103557299999991
192,509131,Condominium,SOLD,"JC, Downtown",213 7TH ST,4,"$377,000 ",1.0,1,45,9/23/2005,5/3/2006,,740.0,3.0,,42,175.0,,,None,,7302,No,,No,,,No,,,Yes,,,No,,No,,No,,,No,,,No,,213,7th St,Not Found,Hoboken,07030,40.7450391,-74.030896499999997
193,60000510,Condominium,SOLD,"JC, West Bergen",39 CHERRY ST,39,"$377,000 ",2.0,2,99,12/14/2005,6/22/2006,,1100.0,5.0,,65,180.0,,,"1 Car, Other-See Remarks",,07305-4816,No,,Yes,,,No,,,No,,3274,No,,No,,No,,,No,,,No,,39,Cherry St,Hackensack River Waterfront,Jersey City,07305,40.705124699999999,-74.103989900000002
194,60014970,Condominium,SOLD,"JC, Downtown",515 MANILA AVE,4L,"$377,000 ",1.0,1,66,11/21/2006,3/21/2007,,700.0,3.0,,63,,,,None,,7302,No,,Yes,,,No,,,Yes,,,No,,No,,No,,,Yes,,,No,,515,Manila Ave,The Waterfront,Jersey City,07302,40.728354899999999,-74.041689300000002
195,70014665,Condominium,SOLD,Guttenberg,82 68TH ST,2,"$377,000 ",3.0,2,112,10/26/2007,3/20/2008,,1210.0,6.0,,109,235.0,,,"2 Cars, Garage",,07093-4415,No,,Yes,,,Yes,,,No,,,No,,No,,No,,,No,,,No,,82,68th St,Not Found,Guttenberg,07093,40.791080099999988,-74.0038543
196,80001463,Condominium,SOLD,"JC, Downtown",389 WASHINGTON BLVD,12D,"$377,000 ",1.0,1,14,2/1/2008,4/11/2008,,566.0,3.0,,14,319.0,,,1 Car,,7302,Yes,,No,,,Yes,,,Yes,,4492,Yes,,Yes,,No,,,Yes,,,Yes,,389,Washington Blvd,The Waterfront,Jersey City,07310,40.722439000000001,-74.037745700000002
197,80003879,Condominium,SOLD,Weehawken,5 GRAND ST,3,"$377,000 ",2.0,2,62,3/20/2008,7/1/2008,,1250.0,5.0,,63,250.0,,,None,,7086,No,,Yes,,,No,,,No,,4500,No,,No,,No,,,No,,,No,,5,Grand St,Not Found,Weehawken,07086,40.758972100000001,-74.030593400000001
198,90008918,Condominium,SOLD,"JC, Downtown",61 GRAND ST,1L,"$377,000 ",1.0,1,59,7/17/2009,11/5/2009,,733.0,3.0,,59,213.0,,,None,,07302-6482,No,,Yes,,,No,,,Yes,,4800,No,,Yes,,No,,,No,,,No,,61,Grand St,The Waterfront,Jersey City,07302,40.715033599999998,-74.035710100000003
199,90009977,Condominium,SOLD,"JC, Downtown",98 BRIGHT ST,1L,"$377,000 ",2.0,2,73,8/9/2009,11/12/2009,,950.0,5.0,,70,201.0,,,None,,07302-4364,No,,No,,,Yes,,,No,,4320,No,,No,,No,,,No,,,No,,98,Bright St,Downtown Jersey City,Jersey City,07302,40.717601700000003,-74.049561199999999
200,90014035,Condominium,SOLD,Hoboken,1226 PARK AVE,2,"$377,000 ",2.0,1,78,11/11/2009,2/25/2010,,900.0,5.0,,78,248.0,,,Other-See Remarks,,07030-4412,No,,No,,,No,,,No,,5563,No,,No,,No,,,No,,,No,,1226,Park Ave,Not Found,Hoboken,07030,40.7523871,-74.029230699999999
201,100001420,Condominium,SOLD,"JC, Downtown",427 JERSEY AVE,1,"$377,000 ",1.0,1,30,1/26/2010,4/12/2010,,850.0,4.0,,23,155.0,,,None,,07302-4360,No,,No,,,Yes,,,Yes,,3828,No,,No,,No,,,No,,,No,,427,Jersey Ave,Van Vorst Park,Jersey City,07302,40.717040399999988,-74.048702800000001
202,100000483,Condominium,SOLD,"JC, Greenville",30 CONSTITUTION WAY,403,"$377,000 ",2.0,2,80,1/15/2010,6/10/2010,,1400.0,5.0,,80,545.0,No,,"2 Cars, Garage",,07305-5438,Yes,,No,,,Yes,,,Yes,,6000,No,,No,,Yes,,,No,,,Yes,,30,Constitution Way,Not Found,Jersey City,07305,40.689613799999997,-74.071103100000002
203,100006657,Condominium,SOLD,"JC, West Bergen",3 DEMPSEY CT,1,"$377,000 ",2.0,3,23,5/19/2010,8/27/2010,,1491.0,5.0,,23,254.0,No,,"2 Cars, Garage",,07305-5506,No,,Yes,,,No,,,Yes,,6600,No,,No,,Yes,,,No,,,Yes,,Not Found,Dempsey Ct,Hackensack River Waterfront,Jersey City,07305,40.710084599999988,-74.105246999999991
204,100003906,Condominium,SOLD,Union City,3312 HUDSON AVE,6K,"$377,000 ",2.0,2,251,3/25/2010,12/30/2010,,1048.0,5.0,,251,548.0,No,,1 Car,,07087-5967,Yes,,Yes,,,Yes,,,Yes,,0,Yes,,No,,Yes,,,No,,,No,,3312,Hudson Ave,Not Found,Union City,07087,40.770568999999988,-74.025926099999992
205,100003256,Condominium,SOLD,Hoboken,620 JEFFERSON ST,B,"$377,000 ",2.0,1,426,3/12/2010,6/20/2011,,950.0,5.0,,426,260.0,,,Other-See Remarks,,07030-2008,No,,No,,,No,,,Yes,,5835,No,,No,,No,,,No,,,No,,620,Jefferson St,Not Found,Hoboken,07030,40.745405900000002,-74.036270700000003
206,70001514,Condominium,SOLD,Union City,3710 HUDSON AVE,405,"$377,065 ",2.0,2,153,1/31/2007,1/8/2008,,1168.0,5.0,,148,283.0,,,Garage,,7087,No,,Yes,,,No,,,Yes,,"10,206",No,,No,,Yes,,,No,,,No,,3710,Hudson Ave,Not Found,Union City,07087,40.773352000000003,-74.023506999999995
207,407401,Condominium,SOLD,Hoboken,1214 WASHINGTON ST,6,"$377,500 ",2.0,1,20,8/27/2004,10/19/2004,,708.0,3.0,,17,150.0,,,None,,7030,No,,No,,,No,,,Yes,,4214,No,,No,,No,,,No,,,No,,1214,Washington St,Not Found,Hoboken,07030,40.751775700000003,-74.026748599999991
208,502002,Condominium,SOLD,Bayonne,795 AVENUE C,1D,"$377,500 ",2.0,1,84,9/21/2004,3/7/2005,,1100.0,5.0,,0,285.0,,,1 Car,,7002,Yes,,Yes,,,Yes,,,No,,5570,No,,No,,No,,,No,,,No,,795,Avenue C,Bayonne,Bayonne,07002,40.674824000000001,-74.112766999999991
209,60000014,Condominium,SOLD,"JC, Downtown",4 CONSTELLATION PL,108,"$377,500 ",1.0,1,58,1/1/2006,4/5/2006,,767.0,5.0,,56,584.0,,,1 Car,,7302,Yes,,No,,,Yes,,,Yes,,5700,No,,Yes,,Yes,,,No,,,No,,Not Found,Not Found,Not Found,Not Found,Not Found,40.058323799999997,-74.405661199999997
210,60008631,Condominium,SOLD,Hoboken,734 ADAMS ST,3C,"$377,500 ",2.0,1,385,6/30/2006,8/15/2007,,631.0,4.0,,385,242.0,,,Other-See Remarks,,7030,No,,No,,,No,,,No,,,No,,No,,No,,,No,,,No,,734,Adams St,Not Found,Hoboken,07030,40.747067199999996,-74.03479449999999
211,80000136,Condominium,SOLD,Hoboken,1228 PARK AVE,B,"$377,500 ",2.0,1,25,1/3/2008,4/1/2008,,900.0,4.0,,24,326.0,,,None,,07030-4411,No,,Yes,,,No,,,Yes,,5275,No,,No,,No,,,No,,,No,,1228,Park Ave,Not Found,Hoboken,07030,40.752439299999999,-74.02921409999999
212,90002874,Condominium,SOLD,Hoboken,1214 WASHINGTON ST,8,"$377,500 ",2.0,1,23,3/3/2009,4/30/2009,,725.0,4.0,,21,225.0,,,None,,07030-5493,No,,No,,,No,,,Yes,,5022,No,,No,,No,,,No,,,No,,1214,Washington St,Not Found,Hoboken,07030,40.751775700000003,-74.026748599999991
213,90011259,Condominium,SOLD,"JC, Greenville",4 CONSTELLATION PL,205,"$377,500 ",2.0,2,0,9/14/2009,11/20/2009,,1200.0,5.0,,1,607.0,,,"1 Car, Garage",,07305-5495,No,,No,,,No,,,Yes,,7200,No,,No,,Yes,,,Yes,,,Yes,,Not Found,Not Found,Greenville,Jersey City,Not Found,40.698793500000001,-74.091694399999994
214,90015575,Condominium,SOLD,Hoboken,312 MADISON ST,3C,"$377,500 ",2.0,2,73,1/1/2010,4/14/2010,,1000.0,6.0,,70,347.0,,,1 Car,,07030-1975,Yes,,No,,,No,,,Yes,,7985,No,,No,,No,,,No,,,No,,312,Madison St,Not Found,Hoboken,07030,40.742044300000003,-74.03827729999999
215,90010029,Condominium,SOLD,"JC, Downtown",60 ERIE ST,303,"$377,500 ",2.0,1,228,8/6/2009,5/18/2010,,1056.0,5.0,,221,432.0,,,Other-See Remarks,,7302,Yes,,Yes,,,No,,,No,,0,No,,No,,No,,,No,,,No,,60,Erie St,Downtown Jersey City,Jersey City,07302,40.7235984,-74.043929899999995
216,120001056,One Family,SOLD,"JC, Journal Square",136 JEWETT AVE,,"$377,500 ",7.0,3,1,1/25/2012,3/9/2012,,,11.0,,0,,,2 Cars,,,07304-2004,,No,,,,,Yes,Yes,,,8994,,,,,,,No,,,No,,,136,Jewett Ave,West Side,Jersey City,07304,40.722629499999996,-74.072687700000003
217,409483,Condominium,SOLD,Hoboken,1122 HUDSON ST,2B,"$377,900 ",2.0,1,39,11/5/2004,1/20/2005,,800.0,4.0,,35,275.0,,,None,,7030,No,,No,,,No,,,No,,4182,No,,No,,No,,,No,,,No,,1122,Hudson St,Not Found,Hoboken,07030,40.750663899999999,-74.025762
218,405953,Condominium,SOLD,Hoboken,1108 PARK AVE,8,"$378,000 ",2.0,1,80,7/9/2004,1/3/2005,,900.0,5.0,,77,295.0,,,None,,7030,No,,No,,,No,,,No,,3890,No,,No,,Yes,,,Yes,,,No,,1108,Park Ave,Not Found,Hoboken,07030,40.750759100000003,-74.029761399999998
219,405471,Condominium,SOLD,"JC, Downtown",140 BAY ST,3E,"$378,000 ",,1,227,6/23/2004,12/29/2005,,945.0,2.0,,226,,,,None,,7302,Yes,,Yes,,,No,,,No,,,No,,No,,No,,,No,,,No,,140,Bay St,The Waterfront,Jersey City,07302,40.720701699999999,-74.039146299999999
220,506500,One Family,SOLD,Bayonne,32 WEST 34TH ST,,"$378,000 ",5.0,2,221,7/19/2005,4/7/2006,,,9.0,,219,,,"2 Cars, Tandem-Shared, Other-See Remarks, Detached",,,7002,,No,,,,,No,No,,,5507,,,,,,,No,,,No,,,32,W 34th St,Bayonne,Bayonne,07002,40.6736285,-74.111819400000002
221,60003324,One Family,SOLD,Bayonne,102.5 WEST 52ND ST,,"$378,000 ",2.0,2,7,3/16/2006,5/25/2006,,,8.0,,2,,,3+ Cars,,,7002,,No,,,,,No,Yes,,,5600,,,,,,,No,,,No,,,5,W 52nd St,Bayonne,Bayonne,07002,40.684083399999999,-74.10152579999999
222,70001952,One Family,SOLD,"JC, Journal Square",2 DUNCAN CT,,"$378,000 ",5.0,2,27,2/9/2007,5/14/2007,,,8.0,,23,,,"2 Cars, Garage",,,7306,,No,,,,,No,No,,,4522,,,,,,,No,,,No,,,2,Duncan Ct,McGinley Square,Jersey City,07304,40.725455599999997,-74.075343599999997
223,70009332,Condominium,SOLD,Hoboken,109 JACKSON ST,3F,"$378,000 ",1.0,1,2,7/11/2007,10/12/2007,,717.0,4.0,,2,157.0,,,None,,07030-6077,Yes,,Yes,,,No,,,Yes,,3815,No,,No,,Yes,,,No,,,No,,109,Jackson St,Not Found,Hoboken,07030,40.739729500000003,-74.040895599999999
224,80001431,Condominium,SOLD,North Bergen,7430 BLVD EAST,3C,"$378,000 ",2.0,1,232,1/30/2008,10/25/2008,,,5.0,,231,458.0,,,"2 Cars, Tandem-Private",,07047-7908,Yes,,Yes,,,Yes,,,Yes,,8244,No,,No,,No,,,Yes,,,Yes,,7430,Bergen Blvd,Not Found,North Bergen,07047,40.810668399999997,-74.004922699999995
225,110003613,Condominium,SOLD,"JC, Downtown",77 HUDSON ST,2012,"$378,000 ",0.0,1,41,3/21/2011,5/25/2011,,652.0,3.0,,34,436.0,,,"1 Car, Garage",,7302,Yes,,Yes,,,No,,,Yes,,,Yes,,Yes,,Yes,,,No,,,Yes,,77,Hudson St,Lower Manhattan,New York,10013,40.718473199999998,-74.009077899999994
226,110013373,One Family,SOLD,"JC, Downtown",366 5TH ST,,"$378,000 ",2.0,2,89,12/1/2011,4/9/2012,,,7.0,,90,,,None,,,7302,,Yes,,,,,No,Yes,,,4821,,,,,,,No,,,No,,,366,5th St,Not Found,Hoboken,07030,40.743218499999998,-74.035190299999996
227,120007304,Condominium,SOLD,West New York,20 AVENUE AT PORT IMPERIAL,102,"$378,000 ",2.0,1,4,6/18/2012,8/8/2012,,1090.0,4.0,,4,450.0,,,"1 Car, Attached, Covered, Garage",,07093-8417,Yes,,Yes,,,Yes,,,Yes,,9100,Yes,,Yes,,No,,,No,,,No,,20,Avenue W,Mapleton,Brooklyn,11223,40.624996000000003,-73.976782
228,120006832,Condominium,SOLD,"JC, Downtown",43 MERCER ST,4,"$378,500 ",2.0,1,9,6/6/2012,8/23/2012,,732.0,4.0,No,9,117.0,No,,Other-See Remarks,,07302-3589,No,,No,,,No,,,Yes,,4611,No,,No,,No,,,No,,,No,,43,Mercer St,Lower Manhattan,New York,10013,40.721902300000004,-74.00111969999999
229,500078,One Family,SOLD,"JC, West Bergen",156 FOWLER AVE,,"$378,750 ",3.0,2,18,1/1/2005,6/2/2005,,,,,14,,,2 Cars,,,7305,,No,,,,,No,No,,,,,,,,,,No,,,No,,,156,Fowler Ave,Greenville,Jersey City,07305,40.701901900000003,-74.095106399999992
230,60002885,Condominium,SOLD,"JC, Heights",176 SHERMAN AVE,305,"$378,750 ",1.0,1,104,3/7/2006,10/27/2006,,1220.0,4.0,,98,212.0,,,"1 Car, Garage",,07307-2045,Yes,,Yes,,,No,,,Yes,,4654,No,,No,,No,,,Yes,,,No,,176,Sherman Ave,The Heights,Jersey City,07307,40.747003800000002,-74.045427799999999
231,120000475,Condominium,SOLD,Hoboken,659 1ST ST,309,"$378,750 ",1.0,1,107,1/12/2012,7/8/2012,,750.0,3.0,,107,182.0,,,None,,7030,Yes,,Yes,,,Yes,,,Yes,,5947,No,,Yes,,No,,,No,,,No,,659,1st St,Not Found,Hoboken,07030,40.7392872,-74.041328899999996
232,70000778,Condominium,SOLD,Union City,544 28TH ST,501,"$378,800 ",2.0,1,59,1/19/2007,5/31/2007,,1044.0,5.0,,59,,,,"1 Car, Covered",,7087,Yes,,Yes,,,No,,,Yes,,,No,,No,,No,,,No,,,No,,544,28th St,Not Found,Union City,07087,40.770810699999998,-74.032631899999998
233,504663,Condominium,SOLD,Hoboken,1300 GRAND ST,,"$378,900 ",2.0,2,356,4/1/2004,4/19/2005,,1038.0,5.0,,0,281.0,,,1 Car,,7030,Yes,,Yes,,,No,,,Yes,,4400,No,,Yes,,No,,,No,,,No,,1300,Grand St,Not Found,Hoboken,07030,40.752978300000002,-74.031140100000002
234,504627,Condominium,SOLD,Hoboken,1300 GRAND ST,,"$378,900 ",2.0,2,360,4/1/2004,4/28/2005,,1038.0,5.0,,0,281.0,,,1 Car,,7030,No,,Yes,,,Yes,,,Yes,,4400,No,,Yes,,No,,,No,,,No,,1300,Grand St,Not Found,Hoboken,07030,40.752978300000002,-74.031140100000002
235,304992,Condominium,SOLD,"JC, Downtown",205 10TH ST,2C,"$379,000 ",2.0,2,121,6/24/2003,1/5/2004,,1700.0,5.0,,121,308.0,,,1 Car,,7302,Yes,,No,,,Yes,,,No,,2000,Yes,,No,,Yes,,,No,,,No,,205,E 10th St,Lower Manhattan,New York,10003,40.729734000000001,-73.986122999999992
236,308062,Condominium,SOLD,Hoboken,84 ADAMS STREET,2C,"$379,000 ",2.0,2,48,10/8/2003,1/9/2004,,900.0,5.0,,48,157.0,,,Other-See Remarks,,7030,Yes,,Yes,,,No,,,No,,6065,No,,Yes,,No,,,No,,,No,,84,Adams St,Not Found,Hoboken,07030,40.738064899999998,-74.037654199999992
237,309141,Condominium,SOLD,Hoboken,1032 WILLOW AVE,2,"$379,000 ",2.0,1,30,11/16/2003,2/17/2004,,1014.0,6.0,,28,195.0,,,None,,7030,No,,No,,,No,,,No,,3222,No,,No,,No,,,No,,,No,,1032,Willow Ave,Not Found,Hoboken,07030,40.749574199999998,-74.031087200000002
238,305612,Condominium,SOLD,Hoboken,616 ADAMS STREET,1,"$379,000 ",2.0,2,152,7/13/2003,4/1/2004,,1087.0,4.0,,149,,,,None,,7030,No,,Yes,,,Yes,,,Yes,,,No,,No,,No,,,No,,,No,,616,Adams St,Not Found,Hoboken,07030,40.745284300000002,-74.03533929999999
239,402463,Condominium,SOLD,Hoboken,94 MONROE ST,1,"$379,000 ",3.0,2,79,2/2/2004,7/9/2004,,990.0,5.0,,27,,,,None,,7030,No,,Yes,,,No,,,Yes,,,No,,No,,No,,,No,,,No,,94,Monroe St,Not Found,Hoboken,07030,40.7388823,-74.040219100000002
240,406836,One Family,SOLD,Teaneck,754 JOHN ST,,"$379,000 ",3.0,2,145,3/8/2004,8/3/2004,,,,,0,,,"Garage, Other-See Remarks",,,7666,,Yes,,,,,No,Yes,,,7577,,,,,,,No,,,No,,,754,John St,Not Found,Teaneck,07666,40.881126999999999,-74.003321
241,405731,Condominium,SOLD,Hoboken,632 JEFFERSON ST,15B,"$379,000 ",2.0,1,31,6/22/2004,8/25/2004,,940.0,5.0,,21,185.0,,,None,,7030,No,,No,,,No,,,Yes,,4506,No,,No,,No,,,No,,,No,,632,Jefferson St,Not Found,Hoboken,07030,40.7455037,-74.036239999999992
242,408250,Condominium,SOLD,Hoboken,510 MONROE ST,405,"$379,000 ",1.0,1,7,9/25/2004,11/12/2004,,800.0,3.0,,3,283.0,,,Other-See Remarks,,7030,Yes,,Yes,,,No,,,Yes,,4241,No,,No,,No,,,Yes,,,Yes,,510,Monroe St,Not Found,Hoboken,07030,40.744255000000003,-74.038617500000001
243,504873,Condominium,SOLD,Hoboken,900 JEFFERSON ST,5C,"$379,000 ",1.0,1,0,10/1/2004,5/2/2005,,741.0,3.0,,0,155.0,,,"Garage, Other-See Remarks",,7030,Yes,,Yes,,,Yes,,,Yes,,,No,,No,,Yes,,,No,,,No,,900,Jefferson St,Not Found,Hoboken,07030,40.748557699999999,-74.035255699999993
244,502014,Condominium,SOLD,Hoboken,416 MONROE ST,4R,"$379,000 ",1.0,1,13,3/8/2005,5/24/2005,,730.0,3.0,,10,,,,None,,7030,No,,Yes,,,Yes,,,Yes,,,No,,No,,No,,,No,,,No,,416,Monroe St,Not Found,Hoboken,07030,40.743549299999998,-74.038796500000004
245,501800,One Family,SOLD,"JC, Heights",97 GRAHAM ST,,"$379,000 ",3.0,1,41,2/28/2005,6/5/2005,,,,,37,,,None,,,7307,,No,,,,,No,Yes,,,4329,,,,,,,No,,,No,,,97,Graham St,The Heights,Jersey City,07307,40.753246999999988,-74.049822800000001
246,500896,Condominium,SOLD,North Bergen,7855 BLVD EAST,6G,"$379,000 ",1.0,1,103,2/1/2005,6/30/2005,,1000.0,4.0,,101,477.0,,,"Attached, Garage",,7047,Yes,,Yes,,,Yes,,,No,,4187,Yes,,No,,Yes,,,Yes,,,No,,7855,Bergen Blvd,Not Found,North Bergen,07047,40.810703400000001,-74.005035899999996
247,504009,Condominium,SOLD,Hoboken,409 ADAMS ST,3,"$379,000 ",1.0,1,32,4/30/2005,7/20/2005,,560.0,3.0,,23,150.0,,,1 Car,,7030,No,,Yes,,,Yes,,,No,,3441,No,,No,,No,,,No,,,No,,409,Adams St,Not Found,Hoboken,07030,40.742756499999999,-74.036108400000003
248,507822,Condominium,SOLD,Hoboken,610 NEWARK ST,4C,"$379,000 ",1.0,1,15,8/24/2005,12/22/2005,,680.0,3.0,,14,262.0,,,"1 Car, Covered, Garage",,7030,Yes,,Yes,,,Yes,,,Yes,,4109,No,,Yes,,No,,,No,,,No,,610,Newark St,Not Found,Hoboken,07030,40.736933399999998,-74.038848299999998
249,511491,One Family,SOLD,North Bergen,509 73RD ST,,"$379,000 ",3.0,2,147,10/6/2005,4/28/2006,,,9.0,,99,,,None,,,7047,,No,,,,,No,No,,,6400,,,,,,,No,,,No,,,509,73rd St,Not Found,North Bergen,07047,40.798023999999998,-74.01010269999999
250,507352,Condominium,SOLD,"JC, Downtown",580 JERSEY AVE,4R,"$379,000 ",2.0,1,6,8/12/2005,5/8/2006,,743.0,5.0,,4,,,,None,,7302,No,,Yes,,,No,,,No,,,No,,No,,No,,,No,,,No,,580,Jersey Ave,Historic Downtown,Jersey City,07302,40.723407299999998,-74.045660299999994
251,508369,Condominium,SOLD,Weehawken,2600 PALISADE AVE,1,"$379,000 ",2.0,1,236,9/8/2005,5/16/2006,,1100.0,5.0,,234,,,,"1 Car, Garage",,7086,No,,No,,,No,,,No,,,No,,No,,No,,,No,,,No,,2600,Palisade Ave,Not Found,Union City,07087,40.767913700000001,-74.029114100000001
252,60003506,One Family,SOLD,Bayonne,16 PARKVIEW TERRACE,,"$379,000 ",3.0,2,43,2/14/2006,5/25/2006,,,7.0,,5,,,"2 Cars, Garage",,,7002,,Yes,,,,,No,Yes,,,5056,,,,,,,No,,,No,,,16,Parkview Terrace,Constable Hook,Bayonne,07002,40.6700157,-74.123420299999992
253,60003529,Condominium,SOLD,"JC, Journal Square",75 LIBERTY AVE,A20,"$379,000 ",2.0,2,45,3/21/2006,6/1/2006,,1100.0,5.0,,42,375.0,,,1 Car,,7306,Yes,,Yes,,,Yes,,,Yes,,3914,Yes,,No,,Yes,,,No,,,No,,75,Liberty Ave,Journal Square,Jersey City,07306,40.738669199999997,-74.064488999999995
254,511382,Condominium,SOLD,Hoboken,412 MONROE ST,2,"$379,000 ",1.0,1,164,11/18/2005,6/23/2006,,700.0,3.0,,161,257.0,,,None,,07030-1728,No,,Yes,,,Yes,,,Yes,,,No,,No,,No,,,No,,,No,,412,Monroe St,Not Found,Hoboken,07030,40.743403099999988,-74.038853100000011
255,60003919,Condominium,SOLD,Secaucus,1015 Harmon Cove Tower,1015,"$379,000 ",1.0,1,68,3/29/2006,7/26/2006,,1300.0,5.0,,66,543.0,,,"1 Car, Covered",,7094,Yes,,Yes,,,Yes,,,Yes,,3958,Yes,,Yes,,Yes,,,Yes,,,No,,Not Found,Harmon Cove Tower,Not Found,Secaucus,07094,40.7821353,-74.0788455
256,60012680,Condominium,SOLD,North Bergen,7855 BLVD EAST,18B,"$379,000 ",1.0,2,97,6/3/2006,10/24/2006,,1300.0,3.0,,0,,,,"1 Car, Covered",,7047,No,,No,,,Yes,,,No,,4999,No,,No,,No,,,No,,,No,,7855,Bergen Blvd,Not Found,North Bergen,07047,40.810703400000001,-74.005035899999996
257,60014454,Cooperative,SOLD,West New York,6701 BLVD EAST,D7,"$379,000 ",3.0,2,65,11/9/2006,2/15/2007,,1700.0,6.0,,64,793.0,,,None,,7093,Yes,,No,,,No,,,No,,,No,,No,,No,,,Yes,,,Yes,,Not Found,J F Kennedy Blvd E,Not Found,West New York,07093,40.785493700000004,-74.008134299999995
258,60008370,Condominium,SOLD,Hoboken,300 NEWARK ST,3B,"$379,000 ",1.0,1,254,6/16/2006,4/5/2007,,750.0,3.0,,244,166.0,,,Other-See Remarks,,7030,No,,No,,,No,,,Yes,,4108,No,,No,,No,,,No,,,No,,300,Newark St,Not Found,Hoboken,07030,40.737554600000003,-74.034713099999991
259,60013333,Condominium,SOLD,Hoboken,909 WILLOW AVE,2,"$379,000 ",1.0,1,106,10/11/2006,4/11/2007,,761.0,4.0,,104,200.0,,,None,,7030,No,,No,,,No,,,No,,3152,No,,No,,No,,,No,,,No,,909,Willow Ave,Not Found,Hoboken,07030,40.748057199999998,-74.031543900000003
260,60015192,One Family,SOLD,Bayonne,14 COLUMBUS DR,,"$379,000 ",3.0,3,81,11/27/2006,4/12/2007,,,7.0,,78,,,2 Cars,,,7002,,No,,,,,No,Yes,,,4957,,,,,,,No,,,No,,,14,Columbus Dr,Constable Hook,Bayonne,07002,40.6534628,-74.121146899999999
261,60013480,Condominium,SOLD,Hoboken,410 ADAMS ST,1R,"$379,000 ",1.0,1,136,10/15/2006,4/13/2007,,600.0,3.0,,134,216.0,,,None,,7030,No,,No,,,Yes,,,Yes,,,No,,No,,No,,,No,,,No,,410,Adams St,Not Found,Hoboken,07030,40.742809299999998,-74.036112899999992
262,70004325,Condominium,SOLD,Hoboken,724 BLOOMFIELD ST,4,"$379,000 ",2.0,1,15,3/29/2007,6/5/2007,,640.0,4.0,,11,115.0,,,None,,07030-5019,No,,No,,,No,,,Yes,,5133,No,,No,,No,,,No,,,No,,724,Bloomfield St,Not Found,Hoboken,07030,40.745802099999999,-74.029831399999992
263,60014977,Condominium,SOLD,Hoboken,157 7TH ST,3,"$379,000 ",1.0,1,113,11/21/2006,6/8/2007,,625.0,3.0,,110,150.0,,,Other-See Remarks,,7030,No,,Yes,,,No,,,No,,4605,No,,No,,No,,,No,,,No,,157,7th St,Not Found,Hoboken,07030,40.744882699999998,-74.030030499999995
264,80004343,Condominium,SOLD,"JC, Downtown",700 GROVE ST,5V,"$379,000 ",1.0,1,29,4/1/2008,5/30/2008,,709.0,3.0,,30,357.0,,,None,,7302,Yes,,No,,,Yes,,,No,,0,Yes,,Yes,,No,,,No,,,No,,700,Grove St,The Waterfront,Jersey City,07310,40.736028999999988,-74.040419200000002
265,80007298,Condominium,SOLD,Hoboken,123 WASHINGTON ST,2R,"$379,000 ",1.0,1,14,5/28/2008,9/2/2008,,586.0,3.0,,14,211.0,,,"1 Car, Other-See Remarks",,07030-4612,No,,Yes,,,No,,,Yes,,0,No,,No,,No,,,No,,,No,,123,Washington St,Not Found,Hoboken,07030,40.738166900000003,-74.030529099999995
266,70016125,Condominium,SOLD,Hoboken,517 JACKSON ST,501,"$379,000 ",1.0,1,198,12/3/2007,10/6/2008,,711.0,4.0,,198,179.0,,,None,,7030,Yes,,Yes,,,No,,,Yes,,,No,,No,,No,,,No,,,No,,517,Jackson St,Not Found,Hoboken,07030,40.744600599999998,-74.039256600000002
267,80009727,Condominium,SOLD,"JC, Downtown",158 WAYNE ST,121A,"$379,000 ",2.0,1,83,7/17/2008,10/23/2008,,1027.0,5.0,,83,587.0,,,1 Car,,07302-3440,Yes,,Yes,,,No,,,Yes,,6060,No,,Yes,,Yes,,,No,,,No,,158,Wayne St,Downtown Jersey City,Jersey City,07302,40.7208416,-74.04941749999999
268,80008004,Condominium,SOLD,"JC, Downtown",154 STEUBEN ST,601,"$379,000 ",1.0,1,23,6/10/2008,12/3/2008,,670.0,3.0,,23,259.0,,,Other-See Remarks,,7302,Yes,,Yes,,,No,,,Yes,,0,No,,No,,No,,,No,,,No,,154,Steuben St,Downtown Jersey City,Jersey City,07302,40.719383899999997,-74.039931899999999
269,80013875,Condominium,SOLD,Hoboken,928 GARDEN ST,2,"$379,000 ",1.0,1,119,10/21/2008,3/31/2009,,768.0,3.0,,119,208.0,,,Other-See Remarks,,07030-4209,No,,No,,,Yes,,,Yes,,4257,No,,No,,No,,,No,,,No,,928,Garden St,Not Found,Hoboken,07030,40.748686300000003,-74.0294545
270,90007175,Condominium,SOLD,"JC, Downtown",242 BARROW ST,3C,"$379,000 ",1.0,2,32,6/8/2009,8/28/2009,,840.0,3.0,,32,280.0,,,"1 Car, Covered, Garage",,07302-4098,Yes,,No,,,Yes,,,Yes,,3276,No,,No,,No,,,Yes,,,No,,242,Barrow St,Van Vorst Park,Jersey City,07302,40.716845200000002,-74.046979100000001
271,90011003,Condominium,SOLD,Hoboken,222 WILLOW AVE,2A,"$379,000 ",1.0,1,22,9/9/2009,10/30/2009,,857.0,5.0,,22,225.0,,,None,,07030-3658,No,,No,,,Yes,,,No,,4851,No,,No,,No,,,No,,,No,,222,Willow Ave,Not Found,Hoboken,07030,40.739660699999988,-74.034092399999992
272,100002327,Condominium,SOLD,Hoboken,83 GRAND ST,5A,"$379,000 ",1.0,1,29,2/22/2010,6/2/2010,,803.0,4.0,,29,179.0,No,,1 Car,,07030-2486,No,,Yes,,,Yes,,,Yes,,7443,No,,No,,No,,,Yes,,,No,,83,Grand St,Not Found,Hoboken,07030,40.737843599999998,-74.0366061
273,100000479,Condominium,SOLD,Hoboken,517-521 JACKSON ST,7,"$379,000 ",2.0,2,103,1/14/2010,6/10/2010,,1162.0,5.0,,103,293.0,,,"1 Car, None",,7030,Yes,,Yes,,,No,,,Yes,,0,No,,No,,No,,,No,,,No,,521,Jackson St,Not Found,Hoboken,07030,40.744735400000003,-74.039209499999998
274,110002321,Condominium,SOLD,"JC, Downtown",15 WARREN ST,339,"$379,000 ",1.0,1,22,2/28/2011,4/25/2011,,800.0,4.0,,22,400.0,,,"1 Car, Covered, Garage",,7302,Yes,,Yes,,,Yes,,,Yes,,6627,Yes,,Yes,,No,,,No,,,No,,15,Warren St,The Waterfront,Jersey City,07304,40.711777099999999,-74.040183900000002
275,110000617,Condominium,SOLD,Hoboken,1107-1109 GRAND ST,2B,"$379,000 ",1.0,1,94,1/17/2011,4/29/2011,,829.0,3.0,No,94,201.0,No,,1 Car,,7030,Yes,,Yes,,,No,,,Yes,,7463,No,,No,,No,,,No,,,No,,1109,Grand St,Not Found,Hoboken,07030,40.751207200000003,-74.032537699999992
276,110005501,Condominium,SOLD,Hoboken,233 WILLOW AVE,101,"$379,000 ",1.0,1,19,5/5/2011,7/28/2011,,603.0,5.0,,18,300.0,,,"Other-See Remarks, None",,07030-3647,No,,No,,,Yes,,,No,,6695,No,,No,,No,,,No,,,No,,233,Willow Ave,Not Found,Hoboken,07030,40.739786700000003,-74.034052000000003
277,405624,Condominium,SOLD,Hoboken,812 GRAND ST,423,"$379,030 ",2.0,2,43,4/1/2004,5/20/2004,,1398.0,4.0,,0,257.0,,,Other-See Remarks,,7030,Yes,,Yes,,,No,,,Yes,,,No,,No,,Yes,,,No,,,No,,812,Grand St,Not Found,Hoboken,07030,40.747159699999997,-74.033783999999997
278,401371,Condominium,SOLD,Hoboken,423 ADAMS ST,C,"$379,423 ",2.0,2,37,1/19/2004,6/8/2004,,1100.0,5.0,,2,264.0,,,None,,7030,No,,No,,,No,,,Yes,,5469,No,,No,,No,,,No,,,No,,423,Adams St,Not Found,Hoboken,07030,40.743001900000003,-74.036032699999993
279,70004709,Cooperative,SOLD,Union City,100 MANHATTAN AVE,1012,"$379,500 ",2.0,2,84,4/4/2007,8/22/2007,,1140.0,6.0,,79,924.0,,,1 Car,,7087,Yes,,No,,,Yes,,,No,,,Yes,,Yes,,No,,,Yes,,,Yes,,100,Manhattan Ave,Not Found,Union City,07087,40.751420099999997,-74.038568900000001
280,60011688,Condominium,SOLD,Hoboken,74 GARDEN ST,3N,"$379,611 ",1.0,1,7,9/9/2006,10/27/2006,,627.0,3.0,,5,200.0,,,Other-See Remarks,,7030,No,,No,,,No,,,No,,3700,No,,No,,No,,,No,,,No,,74,Garden St,Not Found,Hoboken,07030,40.7367779,-74.032974199999998
281,401220,One Family,SOLD,Secaucus,812 4TH ST,,"$379,900 ",5.0,2,42,2/14/2004,5/19/2004,,,,,39,,,"2 Cars, Attached, Garage",,,7094,,No,,,,,No,No,,,4251,,,,,,,No,,,No,,,812,4th St,Not Found,Secaucus,07094,40.793017999999996,-74.061689700000002
282,306625,Condominium,SOLD,Hoboken,613 MADISON ST,B,"$379,900 ",2.0,1,225,8/18/2003,5/24/2004,,1080.0,4.0,,223,251.0,,,"1 Car, Other-See Remarks",,7030,No,,No,,,No,,,Yes,,4563,No,,No,,No,,,No,,,No,,613,Madison St,Not Found,Hoboken,07030,40.745389400000001,-74.037269999999992
283,405193,Condominium,SOLD,Hoboken,1115 WILLOW AVE,308,"$379,900 ",2.0,1,6,6/14/2004,9/30/2004,,800.0,5.0,,2,237.0,,,Other-See Remarks,,7030,Yes,,No,,,No,,,No,,4639,No,,No,,Yes,,,No,,,No,,1115,Willow Ave,Not Found,Hoboken,07030,40.750510299999988,-74.030765599999995
284,408261,Condominium,SOLD,Hoboken,725 JEFFERSON ST,19,"$379,900 ",1.0,1,29,9/27/2004,11/24/2004,,628.0,4.0,,27,169.0,,,"2 Cars, Covered, Garage",,7030,Yes,,Yes,,,No,,,Yes,,4772,No,,Yes,,No,,,No,,,No,,725,Jefferson St,Not Found,Hoboken,07030,40.747037599999999,-74.035783199999997
285,504301,Condominium,SOLD,Hoboken,1300 GRAND ST,221,"$379,900 ",2.0,2,366,4/1/2004,4/18/2005,,1055.0,5.0,,0,,,,"1 Car, Attached, Covered, Garage",,7030,Yes,,Yes,,,No,,,Yes,,,No,,No,,Yes,,,No,,,No,,1300,Grand St,Not Found,Hoboken,07030,40.752978300000002,-74.031140100000002
286,501669,Condominium,SOLD,Hoboken,210 2ND ST,5,"$379,900 ",1.0,1,15,2/28/2005,5/13/2005,,760.0,5.0,,15,150.0,,,None,,7030,No,,No,,,No,,,Yes,,4181,No,,No,,No,,,No,,,No,,210,2nd St,Not Found,Hoboken,07030,40.739189000000003,-74.032862699999995
287,503139,Condominium,SOLD,"JC, Heights",95 WEBSTER AVE,2A,"$379,900 ",2.0,1,62,4/13/2005,7/19/2005,,963.0,4.0,,61,,,,1 Car,,7307,No,,Yes,,,No,,,No,,,No,,No,,No,,,No,,,No,,95,County Road 669,The Heights,Jersey City,07307,40.741835799999997,-74.0478071
288,60003018,Condominium,SOLD,Hoboken,229 MONROE ST,1S,"$379,900 ",1.0,1,43,3/14/2006,6/16/2006,,702.0,4.0,,42,190.0,,,None,,7030,No,,No,,,No,,,No,,2629,No,,No,,No,,,No,,,No,,229,Monroe St,Not Found,Hoboken,07030,40.740712700000003,-74.039667800000004
289,60011178,Condominium,SOLD,"JC, Downtown",51 MERCER ST,4,"$379,900 ",2.0,1,27,8/22/2006,11/8/2006,,789.0,4.0,,20,,,,None,,7302,No,,No,,,No,,,No,,,No,,No,,No,,,No,,,No,,51,Mercer St,Lower Manhattan,New York,10013,40.721830300000001,-74.001258499999992
290,70009213,One Family,SOLD,Bayonne,67 EAST 3RD ST,,"$379,900 ",3.0,2,8,7/9/2007,9/27/2007,,,7.0,,8,,,1 Car,,,7002,,Yes,,,,,No,Yes,,,5245,,,,,,,No,,,No,,,67,E 3rd St,Constable Hook,Bayonne,07002,40.648738000000002,-74.124713
291,80007733,One Family,SOLD,Bayonne,128 WEST 33RD ST,,"$379,900 ",6.0,2,79,6/4/2008,9/19/2008,,,9.0,,78,,,2 Cars,,,07002-1942,,No,,,,,No,Yes,,,7924,,,,,,,No,,,No,,,128,W 33rd St,Bayonne,Bayonne,07002,40.674468999999988,-74.117030000000014
292,90004533,Condominium,SOLD,"JC, Downtown",444 JERSEY AVE,14,"$379,950 ",1.0,1,146,4/7/2009,10/16/2009,,869.0,4.0,,145,250.0,,,None,,07302-4058,Yes,,Yes,,,Yes,,,Yes,,0,No,,No,,No,,,Yes,,,Yes,,444,Jersey Ave,Van Vorst Park,Jersey City,07302,40.717389799999999,-74.048506399999994
293,400060,Condominium,SOLD,"JC, Downtown",207 WEST SHEARWATER CT,54,"$380,000 ",2.0,2,28,9/18/2003,1/2/2004,,1350.0,5.0,,0,561.0,,,"1 Car, Garage",,7302,Yes,,Yes,,,Yes,,,Yes,,6600,No,,Yes,,Yes,,,No,,,No,,207,E Shearwater Ct,Not Found,Jersey City,07305,40.686583499999998,-74.071222899999995
294,400760,Condominium,SOLD,Hoboken,300 NEWARK ST,3F,"$380,000 ",2.0,2,52,10/10/2003,1/30/2004,,1150.0,5.0,,0,255.0,,,Other-See Remarks,,7030,Yes,,No,,,No,,,No,,5356,No,,Yes,,No,,,No,,,No,,300,Newark St,Not Found,Hoboken,07030,40.737554600000003,-74.034713099999991
295,307971,Condominium,SOLD,Hoboken,610 NEWARK ST,8E,"$380,000 ",2.0,2,81,9/27/2003,1/30/2004,,960.0,4.0,,74,351.0,,,1 Car,,7030,Yes,,Yes,,,Yes,,,Yes,,5588,Yes,,Yes,,Yes,,,Yes,,,No,,610,Newark St,Not Found,Hoboken,07030,40.736933399999998,-74.038848299999998
296,400895,Condominium,SOLD,Hoboken,610 NEWARK ST,4G,"$380,000 ",1.0,2,32,1/30/2004,4/20/2004,,1055.0,4.0,,26,310.0,,,None,,7030,Yes,,Yes,,,Yes,,,Yes,,5300,No,,Yes,,Yes,,,No,,,No,,610,Newark St,Not Found,Hoboken,07030,40.736933399999998,-74.038848299999998
297,308997,Condominium,SOLD,Hoboken,610 NEWARK ST,4G,"$380,000 ",1.0,2,123,10/17/2003,4/21/2004,,1055.0,5.0,,96,310.0,,,None,,7030,Yes,,Yes,,,Yes,,,Yes,,5300,No,,Yes,,Yes,,,No,,,No,,610,Newark St,Not Found,Hoboken,07030,40.736933399999998,-74.038848299999998
298,401503,Condominium,SOLD,Hoboken,1106 PARK AVE,5L,"$380,000 ",2.0,1,11,2/21/2004,5/3/2004,,830.0,4.0,,7,283.0,,,None,,7030,No,,No,,,No,,,No,,4701,No,,No,,Yes,,,Yes,,,No,,1106,Park Ave,Not Found,Hoboken,07030,40.7506761,-74.029767199999995
299,401463,One Family,SOLD,Bayonne,97 WEST 41ST ST,,"$380,000 ",4.0,1,18,2/23/2004,5/10/2004,,,,,16,,,"2 Cars, Garage",,,7002,,No,,,,,No,No,,,7200,,,,,,,No,,,No,,,97,W 41st St,Bayonne,Bayonne,07002,40.679544,-74.110760999999997
300,400881,Condominium,SOLD,Hoboken,308 BLOOMFIELD ST,2,"$380,000 ",2.0,1,8,2/2/2004,5/12/2004,,845.0,4.0,,5,65.0,,,None,,7030,No,,Yes,,,Yes,,,Yes,,5349,No,,No,,No,,,No,,,No,,308,Bloomfield St,Not Found,Hoboken,07030,40.740466499999997,-74.030963700000001
301,402804,Condominium,SOLD,Hoboken,300 NEWARK ST,7I,"$380,000 ",2.0,2,47,3/25/2004,6/21/2004,,940.0,5.0,,35,246.0,,,Other-See Remarks,,7030,Yes,,No,,,No,,,No,,4571,No,,Yes,,No,,,No,,,No,,300,Newark St,Not Found,Hoboken,07030,40.737554600000003,-74.034713099999991
302,403062,Condominium,SOLD,Weehawken,600 HARBOR BLVD,924,"$380,000 ",1.0,1,23,4/12/2004,6/25/2004,,873.0,4.0,,19,390.0,,,1 Car,,7086,No,,Yes,,,Yes,,,Yes,,5205,Yes,,No,,Yes,,,Yes,,,Yes,,600,Harbor Blvd,Not Found,Weehawken,07086,40.758087000000003,-74.019961999999992
303,403083,One Family,SOLD,Bayonne,53 AVENUE B,,"$380,000 ",4.0,1,14,4/13/2004,7/26/2004,,,,,11,,,1 Car,,,7002,,No,,,,,No,No,,,6000,,,,,,,No,,,No,,,53,Avenue B,Bayonne,Bayonne,07002,40.678437000000002,-74.112961999999996
304,402916,One Family,SOLD,"JC, Journal Square",95 KENSINGTON AVE,,"$380,000 ",4.0,1,4,4/1/2004,7/27/2004,,,,,0,,,2 Cars,,,,,Yes,,,,,No,Yes,,,6218,,,,,,,No,,,No,,,95,Kensington Ave,West Side,Jersey City,07304,40.723379999999999,-74.075921199999996
305,405032,One Family,SOLD,Fairview,412 MCKINLEY ST,,"$380,000 ",3.0,2,30,6/9/2004,8/25/2004,,,,,25,,,3+ Cars,,,7022,,No,,,,,Yes,No,,,4914,,,,,,,No,,,No,,,412,McKinley St,Not Found,Fairview,07022,40.814658000000001,-74.000953899999999
306,406505,Condominium,SOLD,"JC, West Bergen",15 DROYERS POINTE BLVD,,"$380,000 ",2.0,2,11,7/29/2004,8/30/2004,,1491.0,6.0,,11,219.0,,,"2 Cars, Garage",,7305,No,,Yes,,,No,,,Yes,,5000,No,,No,,No,,,Yes,,,Yes,,15,Droyers Pointe Blvd,Hackensack River Waterfront,Jersey City,07305,40.709350700000002,-74.103660899999994
307,402179,One Family,SOLD,Secaucus,1 BLANCHE ST,,"$380,000 ",2.0,2,137,3/15/2004,8/31/2004,,,,,135,,,"1 Car, Attached, Garage, Other-See Remarks",,,7094,,Yes,,,,,No,No,,,3331,,,,,,,Yes,,,No,,,1,Blanche St,Not Found,Secaucus,07094,40.770614500000001,-74.067641699999996
308,403105,One Family,SOLD,"JC, West Bergen",276 WOODLAWN AVE,,"$380,000 ",4.0,3,105,4/15/2004,9/27/2004,,,,,101,,,"3+ Cars, Garage",,,7302,,No,,,,,No,Yes,,,5200,,,,,,,No,,,No,,,276,Woodlawn Ave,Greenville,Jersey City,07305,40.706135699999997,-74.090642199999991
309,405308,Condominium,SOLD,Secaucus,738 MAINSAIL LANE,,"$380,000 ",3.0,2,76,6/15/2004,9/29/2004,,1750.0,6.0,,70,341.0,,,"2 Cars, Attached",,7094,No,,Yes,,,Yes,,,Yes,,3754,No,,No,,Yes,,,No,,,No,,Not Found,Mainsail Ln,Not Found,Secaucus,07094,40.784919100000003,-74.079003299999997
310,405781,Condominium,SOLD,Hoboken,1106 PARK AVE,4R,"$380,000 ",2.0,1,31,7/1/2004,10/1/2004,,890.0,5.0,,26,248.0,,,None,,7030,No,,No,,,No,,,No,,4279,No,,No,,Yes,,,No,,,No,,1106,Park Ave,Not Found,Hoboken,07030,40.7506761,-74.029767199999995
311,405880,One Family,SOLD,North Bergen,1303 79TH ST,,"$380,000 ",4.0,2,70,7/9/2004,11/11/2004,,,,,70,,,2 Cars,,,7047,,No,,,,,No,Yes,,,7015,,,,,,,No,,,No,,,1303,79th St,Not Found,North Bergen,07047,40.804526000000003,-74.013846000000001
312,407460,Condominium,SOLD,Weehawken,518 GREGORY AVE,A302,"$380,000 ",2.0,1,27,8/31/2004,11/17/2004,,1108.0,5.0,,27,384.0,,,"1 Car, Garage",,7086,Yes,,Yes,,,No,,,Yes,,4944,Yes,,No,,Yes,,,No,,,No,,518,Gregory Ave,Not Found,Weehawken,07086,40.765623300000001,-74.026145900000003
313,410180,Condominium,SOLD,Hoboken,77 RIVER ST,9,"$380,000 ",1.0,1,6,10/22/2004,11/24/2004,,869.0,4.0,,0,345.0,,,Garage,,7030,Yes,,No,,,No,,,No,,5052,No,,No,,No,,,Yes,,,No,,77,River St,Not Found,Hoboken,Not Found,40.736452399999997,-74.029071500000001
314,409527,Condominium,SOLD,Hoboken,360 1ST ST,7,"$380,000 ",1.0,1,22,10/18/2004,12/13/2004,,775.0,4.0,,0,176.0,,,Other-See Remarks,,7030,Yes,,Yes,,,Yes,,,No,,4245,No,,No,,No,,,No,,,No,,360,1st St,Not Found,Hoboken,07030,40.738335300000003,-74.035945599999991
315,406706,Condominium,SOLD,Hoboken,1122 HUDSON ST,4B,"$380,000 ",2.0,1,63,8/3/2004,12/29/2004,,850.0,5.0,,61,275.0,,,None,,7030,No,,No,,,No,,,No,,4396,No,,No,,No,,,Yes,,,Yes,,1122,Hudson St,Not Found,Hoboken,07030,40.750663899999999,-74.025762
316,404885,Condominium,SOLD,Hoboken,102 JEFFERSON ST,1,"$380,000 ",2.0,2,139,6/5/2004,1/18/2005,,1000.0,5.0,,135,200.0,,,None,,7030,No,,No,,,No,,,No,,,No,,No,,No,,,No,,,No,,102,Jefferson St,Not Found,Hoboken,07030,40.738891700000003,-74.038260899999997
317,408448,Condominium,SOLD,Hoboken,606-608 ADAMS ST,7,"$380,000 ",1.0,1,94,10/5/2004,1/27/2005,,696.0,3.0,,93,167.0,,,Other-See Remarks,,7030,No,,No,,,Yes,,,Yes,,,No,,No,,No,,,No,,,No,,608,Adams St,Not Found,Hoboken,07030,40.745006400000001,-74.035422299999993
318,501139,Condominium,SOLD,"JC, Downtown",111 EAST SHEARWATER CT,33,"$380,000 ",1.0,1,114,9/11/2004,2/3/2005,,750.0,3.0,,0,502.0,,,"1 Car, Garage",,7305,Yes,,Yes,,,Yes,,,Yes,,5700,Yes,,Yes,,Yes,,,Yes,,,Yes,,111,E Shearwater Ct,Not Found,Jersey City,07305,40.6866056,-74.072020100000003
319,408490,Condominium,SOLD,Hoboken,606-608 ADAMS ST,4,"$380,000 ",1.0,1,2,10/5/2004,2/3/2005,,696.0,3.0,,1,167.0,,,Other-See Remarks,,7030,No,,No,,,Yes,,,Yes,,,No,,No,,No,,,No,,,No,,608,Adams St,Not Found,Hoboken,07030,40.745006400000001,-74.035422299999993
320,410383,One Family,SOLD,Bayonne,121 WEST 35TH ST,,"$380,000 ",3.0,2,93,9/27/2004,2/8/2005,,,,,14,,,2 Cars,,,7002,,Yes,,,,,No,No,,,6505,,,,,,,No,,,No,,,121,W 35th St,Bayonne,Bayonne,07002,40.676492000000003,-74.114989999999992
321,408473,Condominium,SOLD,Hoboken,612-614 ADAMS ST,7,"$380,000 ",,0,94,10/5/2004,2/25/2005,,696.0,,,93,167.0,,,Other-See Remarks,,7030,No,,No,,,Yes,,,Yes,,,No,,No,,No,,,No,,,No,,614,Adams St,Not Found,Hoboken,07030,40.745250200000001,-74.035349499999995
322,410006,Condominium,SOLD,Hoboken,427 GARDEN ST,3,"$380,000 ",1.0,1,34,11/16/2004,3/1/2005,,775.0,3.0,,21,,,,None,,7030,No,,Yes,,,No,,,Yes,,,No,,No,,No,,,No,,,No,,427,Garden St,Not Found,Hoboken,07030,40.741847700000001,-74.031457199999991
323,410543,Condominium,SOLD,Hoboken,519 WILLOW AVE,7,"$380,000 ",2.0,1,52,12/17/2004,4/6/2005,,736.0,4.0,,48,276.0,,,None,,7030,No,,No,,,No,,,No,,,No,,No,,No,,,No,,,No,,519,Willow Ave,Not Found,Hoboken,07030,40.743093500000001,-74.033045899999991
324,409995,Condominium,SOLD,"JC, West Bergen",2 LOCUST ST,,"$380,000 ",2.0,2,86,11/23/2004,4/6/2005,,1676.0,6.0,,80,197.0,,,"2 Cars, Garage",,7305,No,,Yes,,,Yes,,,Yes,,4900,Yes,,No,,No,,,No,,,No,,2,Locust St,Hackensack River Waterfront,Jersey City,07305,40.707174700000003,-74.105122199999997
325,504459,Condominium,SOLD,"JC, Downtown",208 55 WEST SHEARWATER CT,55,"$380,000 ",1.0,1,1,12/16/2004,5/19/2005,,960.0,4.0,,0,565.0,,,1 Car,,7305,Yes,,Yes,,,Yes,,,Yes,,6950,Yes,,Yes,,Yes,,,No,,,Yes,,204-55,Shearwater Ct W,Not Found,Jersey City,07305,40.687232399999999,-74.072986700000001
326,405601,One Family,SOLD,"JC, Journal Square",41 MINA DR,,"$380,000 ",4.0,2,259,6/28/2004,5/27/2005,,,,,258,,,3+ Cars,,,7305,,Yes,,,,,No,No,,,6535,,,,,,,No,,,No,,,Not Found,Mina Dr,Greenville,Jersey City,07305,40.699325199999997,-74.100843999999995
327,502259,Condominium,SOLD,Hoboken,224 MONROE ST,,"$380,000 ",1.0,1,8,3/17/2005,6/16/2005,,719.0,4.0,,7,225.0,,,"1 Car, Garage",,7030,No,,No,,,Yes,,,No,,3705,No,,No,,No,,,No,,,No,,224,Monroe St,Not Found,Hoboken,07030,40.740654800000002,-74.039688200000001
328,501979,Condominium,SOLD,"JC, Downtown",200-23 WEST SHEARWATER CT,46999,"$380,000 ",1.0,1,15,3/1/2005,6/18/2005,,750.0,4.0,,6,510.0,,,"1 Car, Garage",,7305,Yes,,Yes,,,No,,,Yes,,6750,No,,Yes,,Yes,,,Yes,,,Yes,,204-23,Shearwater Ct W,Not Found,Jersey City,07305,40.686900999999999,-74.072520400000002
329,500580,One Family,SOLD,"JC, West Bergen",150 FOWLER AVE,,"$380,000 ",3.0,2,59,1/18/2005,6/24/2005,,,,,56,,,1 Car,,,7305,,Yes,,,,,No,No,,,,,,,,,,No,,,No,,,150,Fowler Ave,Greenville,Jersey City,07305,40.701759500000001,-74.095259999999996
330,501941,Condominium,SOLD,"JC, Downtown",45 RIVER DR SOUTH,704,"$380,000 ",1.0,1,8,3/7/2005,7/18/2005,,853.0,3.0,,6,249.0,,,None,,7310,Yes,,No,,,No,,,No,,2900,No,,No,,No,,,No,,,No,,45,River Dr S,The Waterfront,Jersey City,07310,40.728247000000003,-74.03201
331,501068,Condominium,SOLD,"JC, Greenville",208 WEST SHEARWATER CT,42,"$380,000 ",1.0,1,74,2/3/2005,7/18/2005,,960.0,4.0,,68,546.0,,,"1 Car, Garage",,7305,Yes,,Yes,,,Yes,,,Yes,,6900,Yes,,Yes,,Yes,,,No,,,No,,208,Shearwater Ct W,Not Found,Jersey City,07305,40.6876301,-74.073478299999991
332,502051,One Family,SOLD,Rutherford,29 WINGRA AVE,,"$380,000 ",4.0,2,106,3/7/2005,7/22/2005,,,,,102,,,"1 Car, Detached",,,7070,,No,,,,,No,Yes,,,4882,,,,,,,No,,,No,,,29,Wingra Ave,Not Found,Rutherford,07070,40.840443999999998,-74.116636
333,503934,Condominium,SOLD,Hoboken,550 2ND ST,1F,"$380,000 ",2.0,1,9,5/2/2005,8/3/2005,,805.0,4.0,,6,280.0,,,None,,7030,No,,No,,,No,,,No,,3216,No,,No,,No,,,No,,,No,,550,2nd St,Not Found,Hoboken,07030,40.740097100000007,-74.038345100000001
334,501384,One Family,SOLD,Secaucus,734 1ST ST,,"$380,000 ",3.0,2,95,2/14/2005,8/17/2005,,,,,91,,,"2 Cars, Garage",,,7094,,Yes,,,,,No,Yes,,,3725,,,,,,,No,,,No,,,734,1st St,Not Found,Secaucus,07094,40.790116599999998,-74.061257699999999
335,502888,One Family,SOLD,"JC, Downtown",4 SADDLEWOOD CT,,"$380,000 ",3.0,2,28,3/31/2005,8/24/2005,,,,,21,,,2 Cars,,,7302,,Yes,,,,,No,Yes,,,4859,,,,,,,No,,,No,,,4,Saddlewood Ct,Downtown Jersey City,Jersey City,07302,40.721751099999999,-74.04151499999999
336,503746,One Family,SOLD,North Bergen,1459 71ST ST,,"$380,000 ",4.0,3,108,4/29/2005,9/7/2005,,,,,105,,,"1 Car, Garage",,,7047,,No,,,,,No,No,,,3697,,,,,,,No,,,No,,,1459,71st St,Not Found,North Bergen,07047,40.800320900000003,-74.018684999999991
337,507947,One Family,SOLD,"JC, Journal Square",833 PAVONIA AVE,,"$380,000 ",4.0,2,22,8/18/2005,9/20/2005,,,,,11,,,2 Cars,,,7306,,No,,,,,No,No,,,4606,,,,,,,No,,,No,,,833,Pavonia Ave,Journal Square,Jersey City,07306,40.733438900000003,-74.066780600000001
338,505598,Condominium,SOLD,Hoboken,532 WASHINGTON ST,2N,"$380,000 ",2.0,1,21,6/20/2005,10/11/2005,,575.0,4.0,,19,152.0,,,None,,7030,No,,Yes,,,No,,,Yes,,3700,No,,No,,No,,,No,,,No,,532,Washington St,Not Found,Hoboken,07030,40.7432534,-74.029267899999994
339,504798,One Family,SOLD,Fairview,314 4TH ST,,"$380,000 ",3.0,2,83,5/25/2005,10/14/2005,,,,,77,,,None,,,7018,,No,,,,,No,No,,,4333,,,,,,,Yes,,,No,,,314,4th St,Not Found,Fairview,07022,40.817317000000003,-73.994911000000002
340,509371,Condominium,SOLD,"JC, West Bergen",22 CEDAR ST,140,"$380,000 ",2.0,1,23,9/24/2005,11/21/2005,,1286.0,5.0,,17,180.0,,,1 Car,,7305,No,,Yes,,,No,,,Yes,,3730,No,,No,,No,,,No,,,No,,22,Cedar St,Hackensack River Waterfront,Jersey City,07305,40.705444700000001,-74.10494469999999
341,508242,One Family,SOLD,Union City,531 30TH ST,,"$380,000 ",3.0,2,51,9/5/2005,11/28/2005,,,,,49,,,"1 Car, 2 Cars",,,7087,,No,,,,,No,Yes,,,4501,,,,,,,Yes,,,No,,,531,30th St,Not Found,Union City,07087,40.771524900000003,-74.031178999999995
342,508567,One Family,SOLD,"JC, Heights",219 CONGRESS ST,,"$380,000 ",3.0,1,57,9/12/2005,12/2/2005,,,,,55,,,None,,,7307,,Yes,,,,,No,No,,,3873,,,,,,,No,,,No,,,219,Congress St,The Heights,Jersey City,07307,40.752819100000004,-74.050656399999994
343,508741,One Family,SOLD,Bayonne,119 WEST 57TH ST,,"$380,000 ",4.0,1,48,9/14/2005,12/15/2005,,,,,46,,,"2 Cars, Garage, Other-See Remarks, Detached",,,7002,,No,,,,,No,No,,,6762,,,,,,,No,,,No,,,119,W 57th St,Bayonne,Bayonne,07002,40.689559000000003,-74.103494999999995
344,503899,Condominium,SOLD,Weehawken,203-207 HACKENSACK PLANK RD,2B,"$380,000 ",1.0,2,55,5/3/2005,1/26/2006,,1305.0,4.0,,53,376.0,,,1 Car,,7087,No,,Yes,,,Yes,,,Yes,,,No,,No,,No,,,No,,,No,,207,Hackensack Plank Rd,Not Found,Union City,07087,40.769389599999997,-74.026930699999994
345,509712,Condominium,SOLD,Hoboken,924 GARDEN ST,1R,"$380,000 ",1.0,1,43,10/6/2005,2/10/2006,,567.0,4.0,,41,200.0,,,None,,7030,No,,No,,,No,,,No,,2797,No,,No,,No,,,No,,,No,,924,Garden St,Not Found,Hoboken,07030,40.748470900000001,-74.029439400000001
346,508272,One Family,SOLD,Kearny,11 VAN CORTLANDT PL,,"$380,000 ",5.0,2,143,9/2/2005,3/3/2006,,,10.0,,137,,,"2 Cars, Garage, Detached",,,7032,,No,,,,,No,No,,,6346,,,,,,,No,,,No,,,11,Van Courtland Pl,Not Found,Kearny,07032,40.781064999999998,-74.138342999999992
347,511433,Condominium,SOLD,"JC, Downtown",291 4TH ST,2,"$380,000 ",2.0,1,67,11/18/2005,3/18/2006,,800.0,4.0,,63,,,,1 Car,,07302-2313,No,,Yes,,,No,,,Yes,,,No,,No,,No,,,No,,,No,,291,4th St,Downtown Jersey City,Jersey City,07302,40.724201000000001,-74.047096600000003
348,509372,Condominium,SOLD,"JC, West Bergen",40 WILLOW ST,53 P,"$380,000 ",2.0,2,170,9/15/2005,3/31/2006,,1398.0,6.0,,155,205.0,,,1 Car,,7305,No,,Yes,,,No,,,Yes,,4057,No,,No,,No,,,No,,,Yes,,40,Willow St,Bayonne,Bayonne,07002,40.670661099999997,-74.110330699999992
349,507309,One Family,SOLD,Bayonne,9 EAST 31ST ST,,"$380,000 ",6.0,3,155,8/9/2005,4/18/2006,,,9.0,,152,,,1 Car,,,7002,,No,,,,,No,No,,,5180,,,,,,,No,,,No,,,9,E 31st St,Constable Hook,Bayonne,07002,40.670081000000003,-74.112410999999994
350,60000206,Condominium,SOLD,"JC, West Bergen",407 GRANT AVE,310,"$380,000 ",2.0,2,39,1/14/2006,4/20/2006,,1439.0,6.0,,44,304.0,,,"1 Car, Garage",,07305-1104,No,,Yes,,,Yes,,,No,,,No,,No,,No,,,No,,,No,,407,Grant Ave,Hackensack River Waterfront,Jersey City,07305,40.7142652,-74.088625899999997
351,60000925,Condominium,SOLD,"JC, Downtown",212 9TH ST,4A,"$380,000 ",2.0,1,57,1/23/2006,5/3/2006,,825.0,3.0,,55,160.0,,,None,,7302,No,,No,,,No,,,No,,2948,No,,No,,No,,,No,,,No,,212,E 9th St,Lower Manhattan,New York,10003,40.7296233,-73.98878599999999
352,507361,Condominium,SOLD,"JC, Downtown",580 JERSEY AVE,3R,"$380,000 ",2.0,1,110,8/12/2005,5/16/2006,,728.0,5.0,,108,,,,None,,7302,No,,Yes,,,No,,,No,,,No,,No,,No,,,No,,,No,,580,Jersey Ave,Historic Downtown,Jersey City,07302,40.723407299999998,-74.045660299999994
353,507640,Condominium,SOLD,"JC, Downtown",306 2ND ST,,"$380,000 ",2.0,1,223,8/17/2005,5/17/2006,,825.0,5.0,,218,211.0,,,None,,7302,No,,Yes,,,No,,,Yes,,5523,No,,No,,No,,,No,,,No,,306,2nd St,Downtown Jersey City,Jersey City,07302,40.7227733,-74.046754499999992
354,60000658,Condominium,SOLD,"JC, West Bergen",87 COTTONWOOD ST,,"$380,000 ",2.0,2,48,1/14/2006,5/26/2006,,1300.0,4.0,,42,180.0,,,1 Car,,7305,No,,Yes,,,Yes,,,Yes,,3688,No,,No,,No,,,No,,,Yes,,87,Cottonwood St,Hackensack River Waterfront,Jersey City,07305,40.706721799999997,-74.104177899999996
355,511109,One Family,SOLD,Bayonne,23 EAST 48TH ST,,"$380,000 ",5.0,3,153,11/10/2005,6/16/2006,,,8.0,,149,,,None,,,7002,,No,,,,,No,No,,,5134,,,,,,,No,,,No,,,23,E 48th St,Bayonne,Bayonne,07002,40.681283999999998,-74.102183999999994
356,60006069,Condominium,SOLD,Hoboken,109 JACKSON ST,3G,"$380,000 ",1.0,1,18,5/6/2006,6/29/2006,,717.0,3.0,,13,127.0,,,None,,7030,No,,Yes,,,No,,,Yes,,3651,No,,Yes,,No,,,No,,,No,,109,Jackson St,Not Found,Hoboken,07030,40.739729500000003,-74.040895599999999
357,60005496,Condominium,SOLD,Secaucus,283 SUNSET KEY,,"$380,000 ",2.0,2,16,4/23/2006,7/13/2006,,1008.0,6.0,,9,280.0,,,"2 Cars, Covered, Tandem-Shared",,,No,,Yes,,,Yes,,,No,,3878,No,,No,,No,,,No,,,Yes,,283,Sunset Key,Not Found,Secaucus,07094,40.786387300000001,-74.078150100000002
358,505206,One Family,SOLD,"JC, Heights",53 LAKE ST,,"$380,000 ",5.0,2,361,6/10/2005,7/31/2006,,,10.0,,361,,,None,,,7306,,Yes,,,,,No,No,,,3979,,,,,,,No,,,No,,,53,Lake St,The Heights,Jersey City,07306,40.742663899999997,-74.057498999999993
359,60006210,Condominium,SOLD,Union City,803 SIP ST,502,"$380,000 ",2.0,1,110,5/10/2006,9/21/2006,,1150.0,4.0,,108,234.0,,,1 Car,,7087,Yes,,Yes,,,No,,,No,,,No,,No,,No,,,No,,,No,,803,Sip St,Not Found,Union City,07087,40.773827599999997,-74.032552299999992
360,50012031,Condominium,SOLD,Hoboken,508 GRAND ST,1L,"$380,000 ",2.0,2,250,12/8/2005,9/26/2006,,729.0,4.0,,245,191.0,,,None,,07030-2798,No,,Yes,,,No,,,Yes,,,No,,No,,No,,,No,,,No,,508,Grand St,Not Found,Hoboken,07030,40.7435993,-74.034912900000009
361,60009047,Condominium,SOLD,Hoboken,70 PARK AVE,"3R,6","$380,000 ",2.0,1,48,7/7/2006,9/29/2006,,730.0,5.0,,43,151.0,,,None,,7030,No,,No,,,No,,,Yes,,3780,No,,No,,No,,,No,,,No,,70,Park Ave,Not Found,Hoboken,07030,40.736730799999997,-74.03406489999999
362,60009673,Condominium,SOLD,Hoboken,1204 WASHINGTON ST,4N,"$380,000 ",1.0,1,46,7/23/2006,10/10/2006,,750.0,4.0,,43,160.0,,,None,,7030,No,,No,,,No,,,No,,3868,No,,No,,No,,,No,,,No,,1204,Washington St,Not Found,Hoboken,07030,40.751315499999997,-74.0267324
363,60009114,Condominium,SOLD,"JC, Downtown",351 2ND ST,108,"$380,000 ",2.0,2,53,7/9/2006,10/17/2006,,1500.0,6.0,,49,453.0,,,"1 Car, Covered, Garage",,7302,No,,Yes,,,No,,,Yes,,5028,No,,No,,No,,,No,,,No,,351,2nd St,Downtown Jersey City,Jersey City,07302,40.722908099999998,-74.048942400000001
364,60011260,One Family,SOLD,"JC, West Bergen",28 SUBURBIA CT,,"$380,000 ",3.0,2,36,8/28/2006,11/15/2006,,,7.0,,34,,,"1 Car, Garage",,,7305,,No,,,,,No,Yes,,,5304,,,,,,,No,,,No,,,28,Suburbia Ct,Greenville,Jersey City,07305,40.701773500000002,-74.101377999999997
365,60013412,Condominium,SOLD,Hoboken,80 PARK AVE,3C,"$380,000 ",1.0,1,17,10/13/2006,11/22/2006,,685.0,4.0,,14,240.0,,,1 Car,,7030,Yes,,No,,,No,,,No,,4165,No,,No,,No,,,No,,,No,,80,Park Ave,Not Found,Hoboken,07030,40.7372674,-74.033829400000002
366,60007774,Condominium,SOLD,"JC, Downtown",227 BAY ST,1A,"$380,000 ",2.0,2,72,6/9/2006,11/30/2006,,803.0,4.0,,68,175.0,,,None,,7302,No,,Yes,,,Yes,,,Yes,,2394,No,,No,,No,,,No,,,No,,227,Bay St,Downtown Jersey City,Jersey City,07302,40.721017099999997,-74.043746799999994
367,60011636,Condominium,SOLD,Secaucus,1802 Harmon Cove Tower,18-02,"$380,000 ",2.0,2,95,9/2/2006,12/19/2006,,1525.0,5.0,,89,636.0,,,"1 Car, Garage, Other-See Remarks",,7094,Yes,,Yes,,,Yes,,,Yes,,4092,Yes,,Yes,,Yes,,,Yes,,,No,,Not Found,Harmon Cove Tower,Not Found,Secaucus,07094,40.7821353,-74.0788455
368,60014942,One Family,SOLD,Union City,4509 HARRISON PL,,"$380,000 ",4.0,2,79,11/18/2006,2/5/2007,,,7.0,,75,,,2 Cars,,,7087,,No,,,,,No,No,,,5838,,,,,,,No,,,No,,,4509,Harrison Pl,Not Found,Union City,07087,40.780412600000012,-74.024624200000005
369,60014317,Condominium,SOLD,"JC, West Bergen",29 JUNIPER ST,1,"$380,000 ",3.0,2,13,11/1/2006,2/12/2007,,1400.0,6.0,,7,1800.0,,,2 Cars,,7305,No,,Yes,,,No,,,Yes,,4800,No,,No,,No,,,No,,,No,,29,Juniper St,Hackensack River Waterfront,Jersey City,07305,40.706310899999998,-74.102392800000004
370,60013384,Condominium,SOLD,Bayonne,191-201 WEST 30TH ST,308,"$380,000 ",2.0,2,81,10/12/2006,2/28/2007,,1211.0,6.0,,77,260.0,,,"1 Car, Covered, Garage",,7002,Yes,,Yes,,,Yes,,,Yes,,7200,No,,Yes,,Yes,,,No,,,Yes,,191,W 30th St,Constable Hook,Bayonne,07002,40.673134900000001,-74.121980699999995
